[
  {
    "id": "marker-1",
    "name": "Biofuel Express Arboga",
    "address": "Burskapsvägen 14, 732 50, Arboga, Zweden",
    "imageUrl": "https://lh3.googleusercontent.com/IT2gbAip6StRHkmGQis6wbbjvXSebPK9GvLab4Ml8bCfG8DCJSDG5oxSepshXBQfCj9zudEUSW7Y85yx0ZXmLtu31TOxsnek5NLzcSXog9TGJdYYB2x4CJED2iE1zmDZuhlGuR5a",
    "latitude": 15.831627,
    "longitude": 59.426233
  },
  {
    "id": "marker-2",
    "name": "Biofuel Express Åstorp",
    "address": "Malmövägen 67, 265 90, Åstorp, Zweden",
    "imageUrl": "https://lh3.googleusercontent.com/IT2gbAip6StRHkmGQis6wbbjvXSebPK9GvLab4Ml8bCfG8DCJSDG5oxSepshXBQfCj9zudEUSW7Y85yx0ZXmLtu31TOxsnek5NLzcSXog9TGJdYYB2x4CJED2iE1zmDZuhlGuR5a",
    "latitude": 12.916557,
    "longitude": 56.143747
  },
  {
    "id": "marker-3",
    "name": "Biofuel Express Falkenberg",
    "address": "Holmagårdsvägen, 311 50, Falkenberg, Zweden",
    "imageUrl": "https://lh3.googleusercontent.com/IT2gbAip6StRHkmGQis6wbbjvXSebPK9GvLab4Ml8bCfG8DCJSDG5oxSepshXBQfCj9zudEUSW7Y85yx0ZXmLtu31TOxsnek5NLzcSXog9TGJdYYB2x4CJED2iE1zmDZuhlGuR5a",
    "latitude": 12.525181,
    "longitude": 56.932846
  },
  {
    "id": "marker-4",
    "name": "Biofuel Express Linköping",
    "address": "Rönögatan, 582 78, Linköping, Zweden",
    "imageUrl": "https://lh3.googleusercontent.com/IT2gbAip6StRHkmGQis6wbbjvXSebPK9GvLab4Ml8bCfG8DCJSDG5oxSepshXBQfCj9zudEUSW7Y85yx0ZXmLtu31TOxsnek5NLzcSXog9TGJdYYB2x4CJED2iE1zmDZuhlGuR5a",
    "latitude": 15.646818,
    "longitude": 58.417439
  },
  {
    "id": "marker-5",
    "name": "Biofuel Express Mariestad",
    "address": "Sandbäcksvägen 135, 542 93, Mariestad, Zweden",
    "imageUrl": "https://lh3.googleusercontent.com/IT2gbAip6StRHkmGQis6wbbjvXSebPK9GvLab4Ml8bCfG8DCJSDG5oxSepshXBQfCj9zudEUSW7Y85yx0ZXmLtu31TOxsnek5NLzcSXog9TGJdYYB2x4CJED2iE1zmDZuhlGuR5a",
    "latitude": 13.848793,
    "longitude": 58.645379
  },
  {
    "id": "marker-6",
    "name": "Biofuel Express Vida Vättern",
    "address": "Hårstorp, 599 91, Ödeshög, Zweden",
    "imageUrl": "https://lh3.googleusercontent.com/IT2gbAip6StRHkmGQis6wbbjvXSebPK9GvLab4Ml8bCfG8DCJSDG5oxSepshXBQfCj9zudEUSW7Y85yx0ZXmLtu31TOxsnek5NLzcSXog9TGJdYYB2x4CJED2iE1zmDZuhlGuR5a",
    "latitude": 14.577651,
    "longitude": 58.153115
  },
  {
    "id": "marker-7",
    "name": "Biofuel Express Hogstorp",
    "address": "Hogstorp 300, 451 95, Uddevalla, Zweden",
    "imageUrl": "https://lh3.googleusercontent.com/IT2gbAip6StRHkmGQis6wbbjvXSebPK9GvLab4Ml8bCfG8DCJSDG5oxSepshXBQfCj9zudEUSW7Y85yx0ZXmLtu31TOxsnek5NLzcSXog9TGJdYYB2x4CJED2iE1zmDZuhlGuR5a",
    "latitude": 11.758479,
    "longitude": 58.39429
  },
  {
    "id": "marker-8",
    "name": "Biofuel Express Vimmerby",
    "address": "Älåkragatan 12, 598 40, Vimmerby, Zweden",
    "imageUrl": "https://lh3.googleusercontent.com/IT2gbAip6StRHkmGQis6wbbjvXSebPK9GvLab4Ml8bCfG8DCJSDG5oxSepshXBQfCj9zudEUSW7Y85yx0ZXmLtu31TOxsnek5NLzcSXog9TGJdYYB2x4CJED2iE1zmDZuhlGuR5a",
    "latitude": 15.849901,
    "longitude": 57.6637
  },
  {
    "id": "marker-9",
    "name": "BSP / Esso express De Lutte",
    "address": "Dorpstraat 66, 7587 AD, De Lutte, Nederland",
    "imageUrl": "https://lh3.googleusercontent.com/IT2gbAip6StRHkmGQis6wbbjvXSebPK9GvLab4Ml8bCfG8DCJSDG5oxSepshXBQfCj9zudEUSW7Y85yx0ZXmLtu31TOxsnek5NLzcSXog9TGJdYYB2x4CJED2iE1zmDZuhlGuR5a",
    "latitude": 6.991957,
    "longitude": 52.314203
  },
  {
    "id": "marker-10",
    "name": "BSP / Esso Express Ermelo Horst",
    "address": "Buitenbrinkweg 83, 3853 LV, Ermelo Horst, Nederland",
    "imageUrl": "https://lh3.googleusercontent.com/IT2gbAip6StRHkmGQis6wbbjvXSebPK9GvLab4Ml8bCfG8DCJSDG5oxSepshXBQfCj9zudEUSW7Y85yx0ZXmLtu31TOxsnek5NLzcSXog9TGJdYYB2x4CJED2iE1zmDZuhlGuR5a",
    "latitude": 5.565036,
    "longitude": 52.311474
  },
  {
    "id": "marker-11",
    "name": "BSP / Esso Express Grou",
    "address": "It Moleân 2, 9001 XS, Grou, Nederland",
    "imageUrl": "https://lh3.googleusercontent.com/IT2gbAip6StRHkmGQis6wbbjvXSebPK9GvLab4Ml8bCfG8DCJSDG5oxSepshXBQfCj9zudEUSW7Y85yx0ZXmLtu31TOxsnek5NLzcSXog9TGJdYYB2x4CJED2iE1zmDZuhlGuR5a",
    "latitude": 5.823538,
    "longitude": 53.096481
  },
  {
    "id": "marker-12",
    "name": "BSP / Esso express Harlingen",
    "address": "Fahrenheitsstraat 2, 8861 NH, Harlingen, Nederland",
    "imageUrl": "https://lh3.googleusercontent.com/IT2gbAip6StRHkmGQis6wbbjvXSebPK9GvLab4Ml8bCfG8DCJSDG5oxSepshXBQfCj9zudEUSW7Y85yx0ZXmLtu31TOxsnek5NLzcSXog9TGJdYYB2x4CJED2iE1zmDZuhlGuR5a",
    "latitude": 5.46063,
    "longitude": 53.181227
  },
  {
    "id": "marker-13",
    "name": "BSP / Esso Express Ommen",
    "address": "Slagenweg 5, 7731 TJ, Ommen, Nederland",
    "imageUrl": "https://lh3.googleusercontent.com/IT2gbAip6StRHkmGQis6wbbjvXSebPK9GvLab4Ml8bCfG8DCJSDG5oxSepshXBQfCj9zudEUSW7Y85yx0ZXmLtu31TOxsnek5NLzcSXog9TGJdYYB2x4CJED2iE1zmDZuhlGuR5a",
    "latitude": 6.436111,
    "longitude": 52.529343
  },
  {
    "id": "marker-14",
    "name": "BSP / Esso express Staphorst",
    "address": "Oude Rijksweg 59, 7951 DZ, Staphorst, Nederland",
    "imageUrl": "https://lh3.googleusercontent.com/IT2gbAip6StRHkmGQis6wbbjvXSebPK9GvLab4Ml8bCfG8DCJSDG5oxSepshXBQfCj9zudEUSW7Y85yx0ZXmLtu31TOxsnek5NLzcSXog9TGJdYYB2x4CJED2iE1zmDZuhlGuR5a",
    "latitude": 6.198248,
    "longitude": 52.641042
  },
  {
    "id": "marker-15",
    "name": "BSP / Esso express Steenderen",
    "address": "Hoge Wesselink 2, 7221 CJ, Steenderen, Nederland",
    "imageUrl": "https://lh3.googleusercontent.com/IT2gbAip6StRHkmGQis6wbbjvXSebPK9GvLab4Ml8bCfG8DCJSDG5oxSepshXBQfCj9zudEUSW7Y85yx0ZXmLtu31TOxsnek5NLzcSXog9TGJdYYB2x4CJED2iE1zmDZuhlGuR5a",
    "latitude": 6.192441,
    "longitude": 52.070179
  },
  {
    "id": "marker-16",
    "name": "BSP / Esso Express Vriezenveen",
    "address": "De Zuivering 46, 7671 SL, Vriezenveen, Nederland",
    "imageUrl": "https://lh3.googleusercontent.com/IT2gbAip6StRHkmGQis6wbbjvXSebPK9GvLab4Ml8bCfG8DCJSDG5oxSepshXBQfCj9zudEUSW7Y85yx0ZXmLtu31TOxsnek5NLzcSXog9TGJdYYB2x4CJED2iE1zmDZuhlGuR5a",
    "latitude": 6.635846,
    "longitude": 52.40474
  },
  {
    "id": "marker-17",
    "name": "BSP / Firezone Doetinchem",
    "address": "Grutbroek 38, 7008 AN, Doetinchem, Nederland",
    "imageUrl": "https://lh3.googleusercontent.com/IT2gbAip6StRHkmGQis6wbbjvXSebPK9GvLab4Ml8bCfG8DCJSDG5oxSepshXBQfCj9zudEUSW7Y85yx0ZXmLtu31TOxsnek5NLzcSXog9TGJdYYB2x4CJED2iE1zmDZuhlGuR5a",
    "latitude": 6.267806,
    "longitude": 51.971265
  },
  {
    "id": "marker-18",
    "name": "BSP / Firezone Elburg",
    "address": "Zuiderzeestraatweg oost 91, 8081 LB, Elburg, Nederland",
    "imageUrl": "https://lh3.googleusercontent.com/IT2gbAip6StRHkmGQis6wbbjvXSebPK9GvLab4Ml8bCfG8DCJSDG5oxSepshXBQfCj9zudEUSW7Y85yx0ZXmLtu31TOxsnek5NLzcSXog9TGJdYYB2x4CJED2iE1zmDZuhlGuR5a",
    "latitude": 5.831698,
    "longitude": 52.439597
  },
  {
    "id": "marker-19",
    "name": "BSP / Firezone Hattemerbroek",
    "address": "Duurzaamheidstraat 78, 8094 PS, Hattemerbroek, Nederland",
    "imageUrl": "https://lh3.googleusercontent.com/IT2gbAip6StRHkmGQis6wbbjvXSebPK9GvLab4Ml8bCfG8DCJSDG5oxSepshXBQfCj9zudEUSW7Y85yx0ZXmLtu31TOxsnek5NLzcSXog9TGJdYYB2x4CJED2iE1zmDZuhlGuR5a",
    "latitude": 6.009922,
    "longitude": 52.487042
  },
  {
    "id": "marker-20",
    "name": "BSP / Firezone IJsselmuiden",
    "address": "Spoorstraat 63, 8271 RG, IJsselmuiden, Nederland",
    "imageUrl": "https://lh3.googleusercontent.com/IT2gbAip6StRHkmGQis6wbbjvXSebPK9GvLab4Ml8bCfG8DCJSDG5oxSepshXBQfCj9zudEUSW7Y85yx0ZXmLtu31TOxsnek5NLzcSXog9TGJdYYB2x4CJED2iE1zmDZuhlGuR5a",
    "latitude": 5.938163,
    "longitude": 52.554791
  },
  {
    "id": "marker-21",
    "name": "BSP / Firezone Kampen",
    "address": "Eckertstraat 35, 8263 CB, Kampen, Nederland",
    "imageUrl": "https://lh3.googleusercontent.com/IT2gbAip6StRHkmGQis6wbbjvXSebPK9GvLab4Ml8bCfG8DCJSDG5oxSepshXBQfCj9zudEUSW7Y85yx0ZXmLtu31TOxsnek5NLzcSXog9TGJdYYB2x4CJED2iE1zmDZuhlGuR5a",
    "latitude": 5.867066,
    "longitude": 52.57199
  },
  {
    "id": "marker-22",
    "name": "BSP / Firezone Leeuwarden",
    "address": "Morseweg 1c, 8912 BG, Leeuwarden, Nederland",
    "imageUrl": "https://lh3.googleusercontent.com/IT2gbAip6StRHkmGQis6wbbjvXSebPK9GvLab4Ml8bCfG8DCJSDG5oxSepshXBQfCj9zudEUSW7Y85yx0ZXmLtu31TOxsnek5NLzcSXog9TGJdYYB2x4CJED2iE1zmDZuhlGuR5a",
    "latitude": 5.753472,
    "longitude": 53.190008
  },
  {
    "id": "marker-23",
    "name": "BSP / Firezone Moerdijk",
    "address": "Steenweg 2, 7481 PA, Moerdijk, Nederland",
    "imageUrl": "https://lh3.googleusercontent.com/IT2gbAip6StRHkmGQis6wbbjvXSebPK9GvLab4Ml8bCfG8DCJSDG5oxSepshXBQfCj9zudEUSW7Y85yx0ZXmLtu31TOxsnek5NLzcSXog9TGJdYYB2x4CJED2iE1zmDZuhlGuR5a",
    "latitude": 6.823242,
    "longitude": 52.157283
  },
  {
    "id": "marker-24",
    "name": "BSP / Firezone Oudleusen",
    "address": "Om de landskroon 16, 7722 VG, Oudleusen, Nederland",
    "imageUrl": "https://lh3.googleusercontent.com/IT2gbAip6StRHkmGQis6wbbjvXSebPK9GvLab4Ml8bCfG8DCJSDG5oxSepshXBQfCj9zudEUSW7Y85yx0ZXmLtu31TOxsnek5NLzcSXog9TGJdYYB2x4CJED2iE1zmDZuhlGuR5a",
    "latitude": 6.317206,
    "longitude": 52.530442
  },
  {
    "id": "marker-25",
    "name": "BSP / Firezone Zwolle (Hessenpoort)",
    "address": "Kleefstraat 7, 8028 PR, Zwolle (Hessenpoort), Nederland",
    "imageUrl": "https://lh3.googleusercontent.com/IT2gbAip6StRHkmGQis6wbbjvXSebPK9GvLab4Ml8bCfG8DCJSDG5oxSepshXBQfCj9zudEUSW7Y85yx0ZXmLtu31TOxsnek5NLzcSXog9TGJdYYB2x4CJED2iE1zmDZuhlGuR5a",
    "latitude": 6.170488,
    "longitude": 52.537986
  },
  {
    "id": "marker-26",
    "name": "BSP / Texaco Amsterdam",
    "address": "Nieuw-Zeelandweg 19, 1045 AL, Amsterdam, Nederland",
    "imageUrl": "https://lh3.googleusercontent.com/IT2gbAip6StRHkmGQis6wbbjvXSebPK9GvLab4Ml8bCfG8DCJSDG5oxSepshXBQfCj9zudEUSW7Y85yx0ZXmLtu31TOxsnek5NLzcSXog9TGJdYYB2x4CJED2iE1zmDZuhlGuR5a",
    "latitude": 4.801562,
    "longitude": 52.40291
  },
  {
    "id": "marker-27",
    "name": "BSP / Texaco Apeldoorn",
    "address": "Tweelingenlaan 48, 7324 AN, Apeldoorn, Nederland",
    "imageUrl": "https://lh3.googleusercontent.com/IT2gbAip6StRHkmGQis6wbbjvXSebPK9GvLab4Ml8bCfG8DCJSDG5oxSepshXBQfCj9zudEUSW7Y85yx0ZXmLtu31TOxsnek5NLzcSXog9TGJdYYB2x4CJED2iE1zmDZuhlGuR5a",
    "latitude": 5.989665,
    "longitude": 52.239513
  },
  {
    "id": "marker-29",
    "name": "BSP / Texaco Balkbrug",
    "address": "Coevorderweg 46, 7707 AR, Balkbrug, Nederland",
    "imageUrl": "https://lh3.googleusercontent.com/IT2gbAip6StRHkmGQis6wbbjvXSebPK9GvLab4Ml8bCfG8DCJSDG5oxSepshXBQfCj9zudEUSW7Y85yx0ZXmLtu31TOxsnek5NLzcSXog9TGJdYYB2x4CJED2iE1zmDZuhlGuR5a",
    "latitude": 6.393705,
    "longitude": 52.60106
  },
  {
    "id": "marker-30",
    "name": "BSP / Texaco Barneveld",
    "address": "Harselaarsweg 52, 3771 MB, Barneveld, Nederland",
    "imageUrl": "https://lh3.googleusercontent.com/IT2gbAip6StRHkmGQis6wbbjvXSebPK9GvLab4Ml8bCfG8DCJSDG5oxSepshXBQfCj9zudEUSW7Y85yx0ZXmLtu31TOxsnek5NLzcSXog9TGJdYYB2x4CJED2iE1zmDZuhlGuR5a",
    "latitude": 5.59764,
    "longitude": 52.165313
  },
  {
    "id": "marker-31",
    "name": "BSP / Texaco Deurningen",
    "address": "Vliegveldstraat 20, 7561 RV, Deurningen, Nederland",
    "imageUrl": "https://lh3.googleusercontent.com/IT2gbAip6StRHkmGQis6wbbjvXSebPK9GvLab4Ml8bCfG8DCJSDG5oxSepshXBQfCj9zudEUSW7Y85yx0ZXmLtu31TOxsnek5NLzcSXog9TGJdYYB2x4CJED2iE1zmDZuhlGuR5a",
    "latitude": 6.84996,
    "longitude": 52.288372
  },
  {
    "id": "marker-32",
    "name": "BSP / Texaco Duiven",
    "address": "Roelofshoeveweg 9, 6921 RH, Duiven, Nederland",
    "imageUrl": "https://lh3.googleusercontent.com/IT2gbAip6StRHkmGQis6wbbjvXSebPK9GvLab4Ml8bCfG8DCJSDG5oxSepshXBQfCj9zudEUSW7Y85yx0ZXmLtu31TOxsnek5NLzcSXog9TGJdYYB2x4CJED2iE1zmDZuhlGuR5a",
    "latitude": 6.013347,
    "longitude": 51.97176
  },
  {
    "id": "marker-33",
    "name": "BSP / Texaco Eemshaven",
    "address": "Schildweg 4a, 9979 XR, Eemshaven, Nederland",
    "imageUrl": "https://lh3.googleusercontent.com/IT2gbAip6StRHkmGQis6wbbjvXSebPK9GvLab4Ml8bCfG8DCJSDG5oxSepshXBQfCj9zudEUSW7Y85yx0ZXmLtu31TOxsnek5NLzcSXog9TGJdYYB2x4CJED2iE1zmDZuhlGuR5a",
    "latitude": 6.820758,
    "longitude": 53.444419
  },
  {
    "id": "marker-34",
    "name": "BSP / Texaco Hapert",
    "address": "Diamantweg 63, 5527 LC, Hapert, Nederland",
    "imageUrl": "https://lh3.googleusercontent.com/IT2gbAip6StRHkmGQis6wbbjvXSebPK9GvLab4Ml8bCfG8DCJSDG5oxSepshXBQfCj9zudEUSW7Y85yx0ZXmLtu31TOxsnek5NLzcSXog9TGJdYYB2x4CJED2iE1zmDZuhlGuR5a",
    "latitude": 5.268404,
    "longitude": 51.349977
  },
  {
    "id": "marker-35",
    "name": "BSP / Texaco Hardenberg",
    "address": "Zwedenweg 15, 7772 FC, Hardenberg, Nederland",
    "imageUrl": "https://lh3.googleusercontent.com/IT2gbAip6StRHkmGQis6wbbjvXSebPK9GvLab4Ml8bCfG8DCJSDG5oxSepshXBQfCj9zudEUSW7Y85yx0ZXmLtu31TOxsnek5NLzcSXog9TGJdYYB2x4CJED2iE1zmDZuhlGuR5a",
    "latitude": 6.644528,
    "longitude": 52.55391
  },
  {
    "id": "marker-36",
    "name": "BSP / Texaco Hasselt",
    "address": "Randweg 1, 8061 RW, Hasselt, Nederland",
    "imageUrl": "https://lh3.googleusercontent.com/IT2gbAip6StRHkmGQis6wbbjvXSebPK9GvLab4Ml8bCfG8DCJSDG5oxSepshXBQfCj9zudEUSW7Y85yx0ZXmLtu31TOxsnek5NLzcSXog9TGJdYYB2x4CJED2iE1zmDZuhlGuR5a",
    "latitude": 6.098228,
    "longitude": 52.57801
  },
  {
    "id": "marker-37",
    "name": "BSP / Texaco Hattem",
    "address": "De Netelhorst 2, 8051 KE, Hattem, Nederland",
    "imageUrl": "https://lh3.googleusercontent.com/IT2gbAip6StRHkmGQis6wbbjvXSebPK9GvLab4Ml8bCfG8DCJSDG5oxSepshXBQfCj9zudEUSW7Y85yx0ZXmLtu31TOxsnek5NLzcSXog9TGJdYYB2x4CJED2iE1zmDZuhlGuR5a",
    "latitude": 6.04605,
    "longitude": 52.486992
  },
  {
    "id": "marker-38",
    "name": "BSP / Texaco Heerenveen",
    "address": "Pluto 3, 8448 CM, Heerenveen, Nederland",
    "imageUrl": "https://lh3.googleusercontent.com/IT2gbAip6StRHkmGQis6wbbjvXSebPK9GvLab4Ml8bCfG8DCJSDG5oxSepshXBQfCj9zudEUSW7Y85yx0ZXmLtu31TOxsnek5NLzcSXog9TGJdYYB2x4CJED2iE1zmDZuhlGuR5a",
    "latitude": 5.938337,
    "longitude": 52.976507
  },
  {
    "id": "marker-39",
    "name": "BSP / Texaco Nijmegen",
    "address": "Koopvaardijweg 18, 6541 BS, Nijmegen, Nederland",
    "imageUrl": "https://lh3.googleusercontent.com/IT2gbAip6StRHkmGQis6wbbjvXSebPK9GvLab4Ml8bCfG8DCJSDG5oxSepshXBQfCj9zudEUSW7Y85yx0ZXmLtu31TOxsnek5NLzcSXog9TGJdYYB2x4CJED2iE1zmDZuhlGuR5a",
    "latitude": 5.833591,
    "longitude": 51.853733
  },
  {
    "id": "marker-40",
    "name": "BSP / Texaco Nijverdal",
    "address": "Handelsweg 26, 7442 CD, Nijverdal, Nederland",
    "imageUrl": "https://lh3.googleusercontent.com/IT2gbAip6StRHkmGQis6wbbjvXSebPK9GvLab4Ml8bCfG8DCJSDG5oxSepshXBQfCj9zudEUSW7Y85yx0ZXmLtu31TOxsnek5NLzcSXog9TGJdYYB2x4CJED2iE1zmDZuhlGuR5a",
    "latitude": 6.493722,
    "longitude": 52.361218
  },
  {
    "id": "marker-41",
    "name": "BSP / Texaco Oldenzaal",
    "address": "Schelmaatstraat 27, 7575 BC, Oldenzaal, Nederland",
    "imageUrl": "https://lh3.googleusercontent.com/IT2gbAip6StRHkmGQis6wbbjvXSebPK9GvLab4Ml8bCfG8DCJSDG5oxSepshXBQfCj9zudEUSW7Y85yx0ZXmLtu31TOxsnek5NLzcSXog9TGJdYYB2x4CJED2iE1zmDZuhlGuR5a",
    "latitude": 6.927718,
    "longitude": 52.297465
  },
  {
    "id": "marker-42",
    "name": "BSP / Texaco Raalte",
    "address": "Overkampsweg 21, 8102 PH, Raalte, Nederland",
    "imageUrl": "https://lh3.googleusercontent.com/IT2gbAip6StRHkmGQis6wbbjvXSebPK9GvLab4Ml8bCfG8DCJSDG5oxSepshXBQfCj9zudEUSW7Y85yx0ZXmLtu31TOxsnek5NLzcSXog9TGJdYYB2x4CJED2iE1zmDZuhlGuR5a",
    "latitude": 6.268403,
    "longitude": 52.365239
  },
  {
    "id": "marker-43",
    "name": "BSP / Texaco Waalwijk",
    "address": "Emmikhovensestraat 6, 5145 PB, Waalwijk, Nederland",
    "imageUrl": "https://lh3.googleusercontent.com/IT2gbAip6StRHkmGQis6wbbjvXSebPK9GvLab4Ml8bCfG8DCJSDG5oxSepshXBQfCj9zudEUSW7Y85yx0ZXmLtu31TOxsnek5NLzcSXog9TGJdYYB2x4CJED2iE1zmDZuhlGuR5a",
    "latitude": 5.059278,
    "longitude": 51.695325
  },
  {
    "id": "marker-44",
    "name": "BSP / Texaco Winterswijk",
    "address": "Snelliusstraat 46, 7102 ED, Winterswijk, Nederland",
    "imageUrl": "https://lh3.googleusercontent.com/IT2gbAip6StRHkmGQis6wbbjvXSebPK9GvLab4Ml8bCfG8DCJSDG5oxSepshXBQfCj9zudEUSW7Y85yx0ZXmLtu31TOxsnek5NLzcSXog9TGJdYYB2x4CJED2iE1zmDZuhlGuR5a",
    "latitude": 6.709604,
    "longitude": 51.959186
  },
  {
    "id": "marker-45",
    "name": "EG Retail Texaco",
    "address": "Ch. de Wavre 2009, 1160, Auderghem, België",
    "imageUrl": "https://lh3.googleusercontent.com/IT2gbAip6StRHkmGQis6wbbjvXSebPK9GvLab4Ml8bCfG8DCJSDG5oxSepshXBQfCj9zudEUSW7Y85yx0ZXmLtu31TOxsnek5NLzcSXog9TGJdYYB2x4CJED2iE1zmDZuhlGuR5a",
    "latitude": 4.44003,
    "longitude": 50.811195
  },
  {
    "id": "marker-47",
    "name": "Energifabriken Bilmetro Bollnäs",
    "address": "Renhammarsvägen 6, 821 50, Bollnäs, Zweden",
    "imageUrl": "https://lh3.googleusercontent.com/IT2gbAip6StRHkmGQis6wbbjvXSebPK9GvLab4Ml8bCfG8DCJSDG5oxSepshXBQfCj9zudEUSW7Y85yx0ZXmLtu31TOxsnek5NLzcSXog9TGJdYYB2x4CJED2iE1zmDZuhlGuR5a",
    "latitude": 16.422366,
    "longitude": 61.356799
  },
  {
    "id": "marker-48",
    "name": "Energifabriken STC Borås",
    "address": "Vävlargatan 11, 507 30, Brämhult, Zweden",
    "imageUrl": "https://lh3.googleusercontent.com/IT2gbAip6StRHkmGQis6wbbjvXSebPK9GvLab4Ml8bCfG8DCJSDG5oxSepshXBQfCj9zudEUSW7Y85yx0ZXmLtu31TOxsnek5NLzcSXog9TGJdYYB2x4CJED2iE1zmDZuhlGuR5a",
    "latitude": 13.012114,
    "longitude": 57.723271
  },
  {
    "id": "marker-49",
    "name": "Energifabriken AKKA Frakt",
    "address": "Blockvägen 12, 247 56, Dalby, Zweden",
    "imageUrl": "https://lh3.googleusercontent.com/IT2gbAip6StRHkmGQis6wbbjvXSebPK9GvLab4Ml8bCfG8DCJSDG5oxSepshXBQfCj9zudEUSW7Y85yx0ZXmLtu31TOxsnek5NLzcSXog9TGJdYYB2x4CJED2iE1zmDZuhlGuR5a",
    "latitude": 13.361105,
    "longitude": 55.660464
  },
  {
    "id": "marker-50",
    "name": "Energifabriken RPV Filipstad",
    "address": "Åsenleden, 682 34, Filipstad, Zweden",
    "imageUrl": "https://lh3.googleusercontent.com/IT2gbAip6StRHkmGQis6wbbjvXSebPK9GvLab4Ml8bCfG8DCJSDG5oxSepshXBQfCj9zudEUSW7Y85yx0ZXmLtu31TOxsnek5NLzcSXog9TGJdYYB2x4CJED2iE1zmDZuhlGuR5a",
    "latitude": 14.1810054,
    "longitude": 59.7191898
  },
  {
    "id": "marker-51",
    "name": "Energifabriken Kranbilsåkarna",
    "address": "Kyrkbyvägen 40, 785 30, Gagnef, Zweden",
    "imageUrl": "https://lh3.googleusercontent.com/IT2gbAip6StRHkmGQis6wbbjvXSebPK9GvLab4Ml8bCfG8DCJSDG5oxSepshXBQfCj9zudEUSW7Y85yx0ZXmLtu31TOxsnek5NLzcSXog9TGJdYYB2x4CJED2iE1zmDZuhlGuR5a",
    "latitude": 15.075683,
    "longitude": 60.592245
  },
  {
    "id": "marker-52",
    "name": "Energifabriken Fillngo Skillingaryd",
    "address": "Gräshult 2, 568 93, Hagshult, Zweden",
    "imageUrl": "https://lh3.googleusercontent.com/IT2gbAip6StRHkmGQis6wbbjvXSebPK9GvLab4Ml8bCfG8DCJSDG5oxSepshXBQfCj9zudEUSW7Y85yx0ZXmLtu31TOxsnek5NLzcSXog9TGJdYYB2x4CJED2iE1zmDZuhlGuR5a",
    "latitude": 14.149266,
    "longitude": 57.355676
  },
  {
    "id": "marker-53",
    "name": "Energifabriken She Heby",
    "address": "Industrivägen 1, 744 31, Heby, Zweden",
    "imageUrl": "https://lh3.googleusercontent.com/IT2gbAip6StRHkmGQis6wbbjvXSebPK9GvLab4Ml8bCfG8DCJSDG5oxSepshXBQfCj9zudEUSW7Y85yx0ZXmLtu31TOxsnek5NLzcSXog9TGJdYYB2x4CJED2iE1zmDZuhlGuR5a",
    "latitude": 16.861295,
    "longitude": 59.93509
  },
  {
    "id": "marker-54",
    "name": "Energifabriken DSV Helsingborg",
    "address": "Stenbrovägen 15, 253 68, Helsingborg, Zweden",
    "imageUrl": "https://lh3.googleusercontent.com/IT2gbAip6StRHkmGQis6wbbjvXSebPK9GvLab4Ml8bCfG8DCJSDG5oxSepshXBQfCj9zudEUSW7Y85yx0ZXmLtu31TOxsnek5NLzcSXog9TGJdYYB2x4CJED2iE1zmDZuhlGuR5a",
    "latitude": 12.770094,
    "longitude": 56.013709
  },
  {
    "id": "marker-55",
    "name": "Energifabriken Bilmetro Hudiksvall",
    "address": "Medskog södra 1, 824 40, Hudiksvall, Zweden",
    "imageUrl": "https://lh3.googleusercontent.com/IT2gbAip6StRHkmGQis6wbbjvXSebPK9GvLab4Ml8bCfG8DCJSDG5oxSepshXBQfCj9zudEUSW7Y85yx0ZXmLtu31TOxsnek5NLzcSXog9TGJdYYB2x4CJED2iE1zmDZuhlGuR5a",
    "latitude": 17.045448,
    "longitude": 61.715733
  },
  {
    "id": "marker-56",
    "name": "Energifabriken Förlängda Armen",
    "address": "Passadvägen 10, 177 70, Järfälla, Zweden",
    "imageUrl": "https://lh3.googleusercontent.com/IT2gbAip6StRHkmGQis6wbbjvXSebPK9GvLab4Ml8bCfG8DCJSDG5oxSepshXBQfCj9zudEUSW7Y85yx0ZXmLtu31TOxsnek5NLzcSXog9TGJdYYB2x4CJED2iE1zmDZuhlGuR5a",
    "latitude": 17.824907,
    "longitude": 59.441415
  },
  {
    "id": "marker-57",
    "name": "Energifabriken Stångåbuss",
    "address": "Tegelbruksvägen 6, 590 39, Kisa, Zweden",
    "imageUrl": "https://lh3.googleusercontent.com/IT2gbAip6StRHkmGQis6wbbjvXSebPK9GvLab4Ml8bCfG8DCJSDG5oxSepshXBQfCj9zudEUSW7Y85yx0ZXmLtu31TOxsnek5NLzcSXog9TGJdYYB2x4CJED2iE1zmDZuhlGuR5a",
    "latitude": 15.651026,
    "longitude": 57.999075
  },
  {
    "id": "marker-58",
    "name": "Energifabriken Gillerfors Åkeri",
    "address": "Hejde Kvie 623, 623 75, Klintehamn, Zweden",
    "imageUrl": "https://lh3.googleusercontent.com/IT2gbAip6StRHkmGQis6wbbjvXSebPK9GvLab4Ml8bCfG8DCJSDG5oxSepshXBQfCj9zudEUSW7Y85yx0ZXmLtu31TOxsnek5NLzcSXog9TGJdYYB2x4CJED2iE1zmDZuhlGuR5a",
    "latitude": 18.333228,
    "longitude": 57.40893
  },
  {
    "id": "marker-59",
    "name": "Energifabriken Kranbilsåkarna Linköping",
    "address": "Fångögatan 8, 582 78, Linköping, Zweden",
    "imageUrl": "https://lh3.googleusercontent.com/IT2gbAip6StRHkmGQis6wbbjvXSebPK9GvLab4Ml8bCfG8DCJSDG5oxSepshXBQfCj9zudEUSW7Y85yx0ZXmLtu31TOxsnek5NLzcSXog9TGJdYYB2x4CJED2iE1zmDZuhlGuR5a",
    "latitude": 15.646818,
    "longitude": 58.417439
  },
  {
    "id": "marker-60",
    "name": "Energifabriken Engströms Linköping",
    "address": "Roxtorpsgatan 20, 582 73, Linköping, Zweden",
    "imageUrl": "https://lh3.googleusercontent.com/IT2gbAip6StRHkmGQis6wbbjvXSebPK9GvLab4Ml8bCfG8DCJSDG5oxSepshXBQfCj9zudEUSW7Y85yx0ZXmLtu31TOxsnek5NLzcSXog9TGJdYYB2x4CJED2iE1zmDZuhlGuR5a",
    "latitude": 15.616566,
    "longitude": 58.422858
  },
  {
    "id": "marker-61",
    "name": "Energifabriken Linköping",
    "address": "Infanterivägen 20, 587 58, Linköping, Zweden",
    "imageUrl": "https://lh3.googleusercontent.com/IT2gbAip6StRHkmGQis6wbbjvXSebPK9GvLab4Ml8bCfG8DCJSDG5oxSepshXBQfCj9zudEUSW7Y85yx0ZXmLtu31TOxsnek5NLzcSXog9TGJdYYB2x4CJED2iE1zmDZuhlGuR5a",
    "latitude": 15.614515,
    "longitude": 58.395234
  },
  {
    "id": "marker-62",
    "name": "Energifabriken Vreta Kluster",
    "address": "Klustervägen, 590 76, Ljungsbro, Zweden",
    "imageUrl": "https://lh3.googleusercontent.com/IT2gbAip6StRHkmGQis6wbbjvXSebPK9GvLab4Ml8bCfG8DCJSDG5oxSepshXBQfCj9zudEUSW7Y85yx0ZXmLtu31TOxsnek5NLzcSXog9TGJdYYB2x4CJED2iE1zmDZuhlGuR5a",
    "latitude": 15.487565,
    "longitude": 58.49116
  },
  {
    "id": "marker-63",
    "name": "Energifabriken Bilmetro Mora",
    "address": "Skålmyrsvägen 39, 792 50, Mora, Zweden",
    "imageUrl": "https://lh3.googleusercontent.com/IT2gbAip6StRHkmGQis6wbbjvXSebPK9GvLab4Ml8bCfG8DCJSDG5oxSepshXBQfCj9zudEUSW7Y85yx0ZXmLtu31TOxsnek5NLzcSXog9TGJdYYB2x4CJED2iE1zmDZuhlGuR5a",
    "latitude": 14.590999,
    "longitude": 61.003699
  },
  {
    "id": "marker-64",
    "name": "Energifabriken Motala",
    "address": "Granhultsgatan 1, 591 62, Motala, Zweden",
    "imageUrl": "https://lh3.googleusercontent.com/IT2gbAip6StRHkmGQis6wbbjvXSebPK9GvLab4Ml8bCfG8DCJSDG5oxSepshXBQfCj9zudEUSW7Y85yx0ZXmLtu31TOxsnek5NLzcSXog9TGJdYYB2x4CJED2iE1zmDZuhlGuR5a",
    "latitude": 15.074023,
    "longitude": 58.560282
  },
  {
    "id": "marker-65",
    "name": "Energifabriken Helgenäs Åby",
    "address": "Ströbogatan 29, 616 90, Norrköping, Zweden",
    "imageUrl": "https://lh3.googleusercontent.com/IT2gbAip6StRHkmGQis6wbbjvXSebPK9GvLab4Ml8bCfG8DCJSDG5oxSepshXBQfCj9zudEUSW7Y85yx0ZXmLtu31TOxsnek5NLzcSXog9TGJdYYB2x4CJED2iE1zmDZuhlGuR5a",
    "latitude": 16.25531,
    "longitude": 58.638978
  },
  {
    "id": "marker-66",
    "name": "Energifabriken Romakloster",
    "address": "Lokstallsgatan 8, 622 54, Romakloster, Zweden",
    "imageUrl": "https://lh3.googleusercontent.com/IT2gbAip6StRHkmGQis6wbbjvXSebPK9GvLab4Ml8bCfG8DCJSDG5oxSepshXBQfCj9zudEUSW7Y85yx0ZXmLtu31TOxsnek5NLzcSXog9TGJdYYB2x4CJED2iE1zmDZuhlGuR5a",
    "latitude": 18.456532,
    "longitude": 57.503355
  },
  {
    "id": "marker-67",
    "name": "Energifabriken SHE Sala",
    "address": "Fabriksgatan 12, 733 39, Sala, Zweden",
    "imageUrl": "https://lh3.googleusercontent.com/IT2gbAip6StRHkmGQis6wbbjvXSebPK9GvLab4Ml8bCfG8DCJSDG5oxSepshXBQfCj9zudEUSW7Y85yx0ZXmLtu31TOxsnek5NLzcSXog9TGJdYYB2x4CJED2iE1zmDZuhlGuR5a",
    "latitude": 16.627004,
    "longitude": 59.919665
  },
  {
    "id": "marker-68",
    "name": "Energifabriken Storuman",
    "address": "Blå vägen 280, 923 98, Storuman, Zweden",
    "imageUrl": "https://lh3.googleusercontent.com/IT2gbAip6StRHkmGQis6wbbjvXSebPK9GvLab4Ml8bCfG8DCJSDG5oxSepshXBQfCj9zudEUSW7Y85yx0ZXmLtu31TOxsnek5NLzcSXog9TGJdYYB2x4CJED2iE1zmDZuhlGuR5a",
    "latitude": 17.122684,
    "longitude": 65.108376
  },
  {
    "id": "marker-69",
    "name": "Energifabriken Fiskarheden",
    "address": "Fiskarheden 103, 780 68, Transtrand, Zweden",
    "imageUrl": "https://lh3.googleusercontent.com/IT2gbAip6StRHkmGQis6wbbjvXSebPK9GvLab4Ml8bCfG8DCJSDG5oxSepshXBQfCj9zudEUSW7Y85yx0ZXmLtu31TOxsnek5NLzcSXog9TGJdYYB2x4CJED2iE1zmDZuhlGuR5a",
    "latitude": 13.321705,
    "longitude": 61.09037
  },
  {
    "id": "marker-70",
    "name": "Energifabriken Engströms Vimmerby",
    "address": "Södra Industrigatan 4, 598 40, Vimmerby, Zweden",
    "imageUrl": "https://lh3.googleusercontent.com/IT2gbAip6StRHkmGQis6wbbjvXSebPK9GvLab4Ml8bCfG8DCJSDG5oxSepshXBQfCj9zudEUSW7Y85yx0ZXmLtu31TOxsnek5NLzcSXog9TGJdYYB2x4CJED2iE1zmDZuhlGuR5a",
    "latitude": 15.844045,
    "longitude": 57.664022
  },
  {
    "id": "marker-71",
    "name": "Energifabriken Visby",
    "address": "Lundbygatan 5, 621 41, Visby, Zweden",
    "imageUrl": "https://lh3.googleusercontent.com/IT2gbAip6StRHkmGQis6wbbjvXSebPK9GvLab4Ml8bCfG8DCJSDG5oxSepshXBQfCj9zudEUSW7Y85yx0ZXmLtu31TOxsnek5NLzcSXog9TGJdYYB2x4CJED2iE1zmDZuhlGuR5a",
    "latitude": 18.331148,
    "longitude": 57.640333
  },
  {
    "id": "marker-72",
    "name": "Energifabriken Dyvik Marina",
    "address": "Dyviks Fabriksväg 7, 184 91, Åkersberga, Zweden",
    "imageUrl": "https://lh3.googleusercontent.com/IT2gbAip6StRHkmGQis6wbbjvXSebPK9GvLab4Ml8bCfG8DCJSDG5oxSepshXBQfCj9zudEUSW7Y85yx0ZXmLtu31TOxsnek5NLzcSXog9TGJdYYB2x4CJED2iE1zmDZuhlGuR5a",
    "latitude": 18.5065795,
    "longitude": 59.529504
  },
  {
    "id": "marker-73",
    "name": "Energifabriken Eco-Alvesta",
    "address": "Orrvägen 3, 342 90, Alvesta, Zweden",
    "imageUrl": "https://lh3.googleusercontent.com/IT2gbAip6StRHkmGQis6wbbjvXSebPK9GvLab4Ml8bCfG8DCJSDG5oxSepshXBQfCj9zudEUSW7Y85yx0ZXmLtu31TOxsnek5NLzcSXog9TGJdYYB2x4CJED2iE1zmDZuhlGuR5a",
    "latitude": 14.524734,
    "longitude": 56.879038
  },
  {
    "id": "marker-74",
    "name": "Energifabriken Eco-Eslöv",
    "address": "Industrivägen 1, 241 38, Eslöv, Zweden",
    "imageUrl": "https://lh3.googleusercontent.com/IT2gbAip6StRHkmGQis6wbbjvXSebPK9GvLab4Ml8bCfG8DCJSDG5oxSepshXBQfCj9zudEUSW7Y85yx0ZXmLtu31TOxsnek5NLzcSXog9TGJdYYB2x4CJED2iE1zmDZuhlGuR5a",
    "latitude": 13.316379,
    "longitude": 55.834519
  },
  {
    "id": "marker-75",
    "name": "Energifabriken Eco-Flen",
    "address": "Taljavägen 4, 642 91, Flen, Zweden",
    "imageUrl": "https://lh3.googleusercontent.com/IT2gbAip6StRHkmGQis6wbbjvXSebPK9GvLab4Ml8bCfG8DCJSDG5oxSepshXBQfCj9zudEUSW7Y85yx0ZXmLtu31TOxsnek5NLzcSXog9TGJdYYB2x4CJED2iE1zmDZuhlGuR5a",
    "latitude": 16.607922,
    "longitude": 59.075413
  },
  {
    "id": "marker-76",
    "name": "Energifabriken Eco-Göteborg",
    "address": "Synnerödsvägen 12, 418 78, Göteborg, Zweden",
    "imageUrl": "https://lh3.googleusercontent.com/IT2gbAip6StRHkmGQis6wbbjvXSebPK9GvLab4Ml8bCfG8DCJSDG5oxSepshXBQfCj9zudEUSW7Y85yx0ZXmLtu31TOxsnek5NLzcSXog9TGJdYYB2x4CJED2iE1zmDZuhlGuR5a",
    "latitude": 11.82317,
    "longitude": 57.704508
  },
  {
    "id": "marker-77",
    "name": "Energifabriken Eco-Helsingborg",
    "address": "Trintegatan 6, 253 68, Helsingborg, Zweden",
    "imageUrl": "https://lh3.googleusercontent.com/IT2gbAip6StRHkmGQis6wbbjvXSebPK9GvLab4Ml8bCfG8DCJSDG5oxSepshXBQfCj9zudEUSW7Y85yx0ZXmLtu31TOxsnek5NLzcSXog9TGJdYYB2x4CJED2iE1zmDZuhlGuR5a",
    "latitude": 12.770094,
    "longitude": 56.013709
  },
  {
    "id": "marker-78",
    "name": "Energifabriken Eco-Jönköping",
    "address": "Lampgatan 1, 566 52, Jönköping, Zweden",
    "imageUrl": "https://lh3.googleusercontent.com/IT2gbAip6StRHkmGQis6wbbjvXSebPK9GvLab4Ml8bCfG8DCJSDG5oxSepshXBQfCj9zudEUSW7Y85yx0ZXmLtu31TOxsnek5NLzcSXog9TGJdYYB2x4CJED2iE1zmDZuhlGuR5a",
    "latitude": 14.166697,
    "longitude": 57.668351
  },
  {
    "id": "marker-79",
    "name": "Energifabriken Eco-Stilleryd",
    "address": "Östersjövägen, 374 93, Karlshamn, Zweden",
    "imageUrl": "https://lh3.googleusercontent.com/IT2gbAip6StRHkmGQis6wbbjvXSebPK9GvLab4Ml8bCfG8DCJSDG5oxSepshXBQfCj9zudEUSW7Y85yx0ZXmLtu31TOxsnek5NLzcSXog9TGJdYYB2x4CJED2iE1zmDZuhlGuR5a",
    "latitude": 14.823482,
    "longitude": 56.170444
  },
  {
    "id": "marker-80",
    "name": "Energifabriken Eco-Karlstad",
    "address": "Välviksleden 214, 656 39, Karlstad, Zweden",
    "imageUrl": "https://lh3.googleusercontent.com/IT2gbAip6StRHkmGQis6wbbjvXSebPK9GvLab4Ml8bCfG8DCJSDG5oxSepshXBQfCj9zudEUSW7Y85yx0ZXmLtu31TOxsnek5NLzcSXog9TGJdYYB2x4CJED2iE1zmDZuhlGuR5a",
    "latitude": 13.606369,
    "longitude": 59.385498
  },
  {
    "id": "marker-81",
    "name": "Energifabriken Eco-Katrineholm",
    "address": "Mejerigatan 13, 641 39, Katrineholm, Zweden",
    "imageUrl": "https://lh3.googleusercontent.com/IT2gbAip6StRHkmGQis6wbbjvXSebPK9GvLab4Ml8bCfG8DCJSDG5oxSepshXBQfCj9zudEUSW7Y85yx0ZXmLtu31TOxsnek5NLzcSXog9TGJdYYB2x4CJED2iE1zmDZuhlGuR5a",
    "latitude": 16.186546,
    "longitude": 58.996671
  },
  {
    "id": "marker-82",
    "name": "Energifabriken Eco-Kristianstad",
    "address": "Kabelvägen 21, 291 62, Kristianstad, Zweden",
    "imageUrl": "https://lh3.googleusercontent.com/IT2gbAip6StRHkmGQis6wbbjvXSebPK9GvLab4Ml8bCfG8DCJSDG5oxSepshXBQfCj9zudEUSW7Y85yx0ZXmLtu31TOxsnek5NLzcSXog9TGJdYYB2x4CJED2iE1zmDZuhlGuR5a",
    "latitude": 14.146395,
    "longitude": 56.012788
  },
  {
    "id": "marker-83",
    "name": "Energifabriken Eco-Kristianstad C4",
    "address": "Industrigatan 114, 291 36, Kristianstad, Zweden",
    "imageUrl": "https://lh3.googleusercontent.com/IT2gbAip6StRHkmGQis6wbbjvXSebPK9GvLab4Ml8bCfG8DCJSDG5oxSepshXBQfCj9zudEUSW7Y85yx0ZXmLtu31TOxsnek5NLzcSXog9TGJdYYB2x4CJED2iE1zmDZuhlGuR5a",
    "latitude": 14.164858,
    "longitude": 56.05296
  },
  {
    "id": "marker-84",
    "name": "Energifabriken Eco-Ljungby",
    "address": "Kungsgatan 66, 341 32, Ljungby, Zweden",
    "imageUrl": "https://lh3.googleusercontent.com/IT2gbAip6StRHkmGQis6wbbjvXSebPK9GvLab4Ml8bCfG8DCJSDG5oxSepshXBQfCj9zudEUSW7Y85yx0ZXmLtu31TOxsnek5NLzcSXog9TGJdYYB2x4CJED2iE1zmDZuhlGuR5a",
    "latitude": 13.913082,
    "longitude": 56.826948
  },
  {
    "id": "marker-85",
    "name": "Energifabriken Eco-Lund",
    "address": "Malmövägen 77, 222 70, Lund, Zweden",
    "imageUrl": "https://lh3.googleusercontent.com/IT2gbAip6StRHkmGQis6wbbjvXSebPK9GvLab4Ml8bCfG8DCJSDG5oxSepshXBQfCj9zudEUSW7Y85yx0ZXmLtu31TOxsnek5NLzcSXog9TGJdYYB2x4CJED2iE1zmDZuhlGuR5a",
    "latitude": 13.181258,
    "longitude": 55.686232
  },
  {
    "id": "marker-86",
    "name": "Energifabriken Eco-Malmö",
    "address": "Kabingatan 2, 212 39, Malmö, Zweden",
    "imageUrl": "https://lh3.googleusercontent.com/IT2gbAip6StRHkmGQis6wbbjvXSebPK9GvLab4Ml8bCfG8DCJSDG5oxSepshXBQfCj9zudEUSW7Y85yx0ZXmLtu31TOxsnek5NLzcSXog9TGJdYYB2x4CJED2iE1zmDZuhlGuR5a",
    "latitude": 13.059728,
    "longitude": 55.604971
  },
  {
    "id": "marker-87",
    "name": "Energifabriken Eco-Norrköping",
    "address": "Kromgatan 10, 602 23, Norrköping, Zweden",
    "imageUrl": "https://lh3.googleusercontent.com/IT2gbAip6StRHkmGQis6wbbjvXSebPK9GvLab4Ml8bCfG8DCJSDG5oxSepshXBQfCj9zudEUSW7Y85yx0ZXmLtu31TOxsnek5NLzcSXog9TGJdYYB2x4CJED2iE1zmDZuhlGuR5a",
    "latitude": 16.165475,
    "longitude": 58.611536
  },
  {
    "id": "marker-88",
    "name": "Energifabriken Eco-Nybro",
    "address": "Norra vägen 4, 382 37, Nybro, Zweden",
    "imageUrl": "https://lh3.googleusercontent.com/IT2gbAip6StRHkmGQis6wbbjvXSebPK9GvLab4Ml8bCfG8DCJSDG5oxSepshXBQfCj9zudEUSW7Y85yx0ZXmLtu31TOxsnek5NLzcSXog9TGJdYYB2x4CJED2iE1zmDZuhlGuR5a",
    "latitude": 15.931263,
    "longitude": 56.737583
  },
  {
    "id": "marker-89",
    "name": "Energifabriken Eco-Örebro",
    "address": "Berglundavägen 13, 702 36, Örebro, Zweden",
    "imageUrl": "https://lh3.googleusercontent.com/IT2gbAip6StRHkmGQis6wbbjvXSebPK9GvLab4Ml8bCfG8DCJSDG5oxSepshXBQfCj9zudEUSW7Y85yx0ZXmLtu31TOxsnek5NLzcSXog9TGJdYYB2x4CJED2iE1zmDZuhlGuR5a",
    "latitude": 15.136943,
    "longitude": 59.211981
  },
  {
    "id": "marker-90",
    "name": "Energifabriken Eco-Tingsryd",
    "address": "Plogvägen 3, 362 31, Tingsryd, Zweden",
    "imageUrl": "https://lh3.googleusercontent.com/IT2gbAip6StRHkmGQis6wbbjvXSebPK9GvLab4Ml8bCfG8DCJSDG5oxSepshXBQfCj9zudEUSW7Y85yx0ZXmLtu31TOxsnek5NLzcSXog9TGJdYYB2x4CJED2iE1zmDZuhlGuR5a",
    "latitude": 14.986653,
    "longitude": 56.528174
  },
  {
    "id": "marker-91",
    "name": "Energifabriken Eco-Varberg",
    "address": "Spannarp 32, 432 77, Varberg, Zweden",
    "imageUrl": "https://lh3.googleusercontent.com/IT2gbAip6StRHkmGQis6wbbjvXSebPK9GvLab4Ml8bCfG8DCJSDG5oxSepshXBQfCj9zudEUSW7Y85yx0ZXmLtu31TOxsnek5NLzcSXog9TGJdYYB2x4CJED2iE1zmDZuhlGuR5a",
    "latitude": 12.431507,
    "longitude": 57.051536
  },
  {
    "id": "marker-92",
    "name": "Esso Express Beek",
    "address": "Arnhemseweg 13, 7037 CX, Beek, Nederland",
    "imageUrl": "https://lh3.googleusercontent.com/IT2gbAip6StRHkmGQis6wbbjvXSebPK9GvLab4Ml8bCfG8DCJSDG5oxSepshXBQfCj9zudEUSW7Y85yx0ZXmLtu31TOxsnek5NLzcSXog9TGJdYYB2x4CJED2iE1zmDZuhlGuR5a",
    "latitude": 6.184384,
    "longitude": 51.908455
  },
  {
    "id": "marker-93",
    "name": "Esso Express Dongen",
    "address": "Eindsestraat 124, 5105 NA, Dongen, Nederland",
    "imageUrl": "https://lh3.googleusercontent.com/IT2gbAip6StRHkmGQis6wbbjvXSebPK9GvLab4Ml8bCfG8DCJSDG5oxSepshXBQfCj9zudEUSW7Y85yx0ZXmLtu31TOxsnek5NLzcSXog9TGJdYYB2x4CJED2iE1zmDZuhlGuR5a",
    "latitude": 4.997884,
    "longitude": 51.608854
  },
  {
    "id": "marker-94",
    "name": "Esso Express Heinenoord",
    "address": "Blaaksedijk oost 5-9, 3274 LA, Heinenoord, Nederland",
    "imageUrl": "https://lh3.googleusercontent.com/IT2gbAip6StRHkmGQis6wbbjvXSebPK9GvLab4Ml8bCfG8DCJSDG5oxSepshXBQfCj9zudEUSW7Y85yx0ZXmLtu31TOxsnek5NLzcSXog9TGJdYYB2x4CJED2iE1zmDZuhlGuR5a",
    "latitude": 4.509374,
    "longitude": 51.812996
  },
  {
    "id": "marker-95",
    "name": "Esso Express Hengelo",
    "address": "Breemarsweg 164 A, 7553 HT, Hengelo, Nederland",
    "imageUrl": "https://lh3.googleusercontent.com/IT2gbAip6StRHkmGQis6wbbjvXSebPK9GvLab4Ml8bCfG8DCJSDG5oxSepshXBQfCj9zudEUSW7Y85yx0ZXmLtu31TOxsnek5NLzcSXog9TGJdYYB2x4CJED2iE1zmDZuhlGuR5a",
    "latitude": 6.789094,
    "longitude": 52.252191
  },
  {
    "id": "marker-96",
    "name": "Esso Express Oldebroek",
    "address": "Zuiderzeestraatweg 253, 8096 BK, Oldebroek, Nederland",
    "imageUrl": "https://lh3.googleusercontent.com/IT2gbAip6StRHkmGQis6wbbjvXSebPK9GvLab4Ml8bCfG8DCJSDG5oxSepshXBQfCj9zudEUSW7Y85yx0ZXmLtu31TOxsnek5NLzcSXog9TGJdYYB2x4CJED2iE1zmDZuhlGuR5a",
    "latitude": 5.920448,
    "longitude": 52.453196
  },
  {
    "id": "marker-97",
    "name": "Esso Express Tubbergen",
    "address": "L. von Bonninghausenstraat 33, 7651 AA, Tubbergen, Nederland",
    "imageUrl": "https://lh3.googleusercontent.com/IT2gbAip6StRHkmGQis6wbbjvXSebPK9GvLab4Ml8bCfG8DCJSDG5oxSepshXBQfCj9zudEUSW7Y85yx0ZXmLtu31TOxsnek5NLzcSXog9TGJdYYB2x4CJED2iE1zmDZuhlGuR5a",
    "latitude": 6.789326,
    "longitude": 52.403023
  },
  {
    "id": "marker-98",
    "name": "Esso Express Veenendaal",
    "address": "Rondweg Oost 12, 3907 JZ, Veenendaal, Nederland",
    "imageUrl": "https://lh3.googleusercontent.com/IT2gbAip6StRHkmGQis6wbbjvXSebPK9GvLab4Ml8bCfG8DCJSDG5oxSepshXBQfCj9zudEUSW7Y85yx0ZXmLtu31TOxsnek5NLzcSXog9TGJdYYB2x4CJED2iE1zmDZuhlGuR5a",
    "latitude": 5.580395,
    "longitude": 52.02883
  },
  {
    "id": "marker-99",
    "name": "Firezone Uithoorn",
    "address": "Koningin Máximalaan 3, 1421 NS, Uithoorn, Nederland",
    "imageUrl": "https://lh3.googleusercontent.com/IT2gbAip6StRHkmGQis6wbbjvXSebPK9GvLab4Ml8bCfG8DCJSDG5oxSepshXBQfCj9zudEUSW7Y85yx0ZXmLtu31TOxsnek5NLzcSXog9TGJdYYB2x4CJED2iE1zmDZuhlGuR5a",
    "latitude": 4.829772,
    "longitude": 52.23227
  },
  {
    "id": "marker-100",
    "name": "GP Groot Argos Den Burg",
    "address": "Keesomlaan 45, 1791 DB, Den Burg (Texel), Nederland",
    "imageUrl": "https://lh3.googleusercontent.com/IT2gbAip6StRHkmGQis6wbbjvXSebPK9GvLab4Ml8bCfG8DCJSDG5oxSepshXBQfCj9zudEUSW7Y85yx0ZXmLtu31TOxsnek5NLzcSXog9TGJdYYB2x4CJED2iE1zmDZuhlGuR5a",
    "latitude": 4.790945,
    "longitude": 53.051442
  },
  {
    "id": "marker-101",
    "name": "GP Groot Argos Groningen",
    "address": "Bornholmstraat 99, 9723 AW, Groningen, Nederland",
    "imageUrl": "https://lh3.googleusercontent.com/IT2gbAip6StRHkmGQis6wbbjvXSebPK9GvLab4Ml8bCfG8DCJSDG5oxSepshXBQfCj9zudEUSW7Y85yx0ZXmLtu31TOxsnek5NLzcSXog9TGJdYYB2x4CJED2iE1zmDZuhlGuR5a",
    "latitude": 6.594287,
    "longitude": 53.212129
  },
  {
    "id": "marker-102",
    "name": "GP Groot Argos Velsen Noord",
    "address": "Concordiastraat, 1951 AS, Velsen Noord, Nederland",
    "imageUrl": "https://lh3.googleusercontent.com/IT2gbAip6StRHkmGQis6wbbjvXSebPK9GvLab4Ml8bCfG8DCJSDG5oxSepshXBQfCj9zudEUSW7Y85yx0ZXmLtu31TOxsnek5NLzcSXog9TGJdYYB2x4CJED2iE1zmDZuhlGuR5a",
    "latitude": 4.649381,
    "longitude": 52.467022
  },
  {
    "id": "marker-103",
    "name": "GP Groot NXT Alkmaar",
    "address": "Diamantweg 32, 1812 RC, Alkmaar, Nederland",
    "imageUrl": "https://lh3.googleusercontent.com/IT2gbAip6StRHkmGQis6wbbjvXSebPK9GvLab4Ml8bCfG8DCJSDG5oxSepshXBQfCj9zudEUSW7Y85yx0ZXmLtu31TOxsnek5NLzcSXog9TGJdYYB2x4CJED2iE1zmDZuhlGuR5a",
    "latitude": 4.754094,
    "longitude": 52.60305
  },
  {
    "id": "marker-104",
    "name": "GP Groot NXT Beverwijk",
    "address": "Gooiland 70, 1948 RD, Beverwijk, Nederland",
    "imageUrl": "https://lh3.googleusercontent.com/IT2gbAip6StRHkmGQis6wbbjvXSebPK9GvLab4Ml8bCfG8DCJSDG5oxSepshXBQfCj9zudEUSW7Y85yx0ZXmLtu31TOxsnek5NLzcSXog9TGJdYYB2x4CJED2iE1zmDZuhlGuR5a",
    "latitude": 4.678373,
    "longitude": 52.474207
  },
  {
    "id": "marker-105",
    "name": "GP Groot NXT Dronten",
    "address": "Koornmarktpoort 1, 8253 TD, Dronten, Nederland",
    "imageUrl": "https://lh3.googleusercontent.com/IT2gbAip6StRHkmGQis6wbbjvXSebPK9GvLab4Ml8bCfG8DCJSDG5oxSepshXBQfCj9zudEUSW7Y85yx0ZXmLtu31TOxsnek5NLzcSXog9TGJdYYB2x4CJED2iE1zmDZuhlGuR5a",
    "latitude": 5.693973,
    "longitude": 52.549051
  },
  {
    "id": "marker-106",
    "name": "GP Groot NXT Westzaan",
    "address": "Kleine Steng 24H, 1551 NC, Westzaan, Nederland",
    "imageUrl": "https://lh3.googleusercontent.com/IT2gbAip6StRHkmGQis6wbbjvXSebPK9GvLab4Ml8bCfG8DCJSDG5oxSepshXBQfCj9zudEUSW7Y85yx0ZXmLtu31TOxsnek5NLzcSXog9TGJdYYB2x4CJED2iE1zmDZuhlGuR5a",
    "latitude": 4.774955,
    "longitude": 52.432599
  },
  {
    "id": "marker-107",
    "name": "GP Groot Total Alkmaar",
    "address": "Smaragdweg 1, 1812 RJ, Alkmaar, Nederland",
    "imageUrl": "https://lh3.googleusercontent.com/IT2gbAip6StRHkmGQis6wbbjvXSebPK9GvLab4Ml8bCfG8DCJSDG5oxSepshXBQfCj9zudEUSW7Y85yx0ZXmLtu31TOxsnek5NLzcSXog9TGJdYYB2x4CJED2iE1zmDZuhlGuR5a",
    "latitude": 4.750236,
    "longitude": 52.609839
  },
  {
    "id": "marker-108",
    "name": "GP Groot Total Dirkshorn",
    "address": "Cornelis de Vriesweg 53, 1746 CM, Dirkshorn, Nederland",
    "imageUrl": "https://lh3.googleusercontent.com/IT2gbAip6StRHkmGQis6wbbjvXSebPK9GvLab4Ml8bCfG8DCJSDG5oxSepshXBQfCj9zudEUSW7Y85yx0ZXmLtu31TOxsnek5NLzcSXog9TGJdYYB2x4CJED2iE1zmDZuhlGuR5a",
    "latitude": 4.778827,
    "longitude": 52.73199
  },
  {
    "id": "marker-109",
    "name": "GP Groot Total Egmond aan den Hoef",
    "address": "Heilooer Zeeweg 25, 1934 PZ, Egmond aan den Hoef, Nederland",
    "imageUrl": "https://lh3.googleusercontent.com/IT2gbAip6StRHkmGQis6wbbjvXSebPK9GvLab4Ml8bCfG8DCJSDG5oxSepshXBQfCj9zudEUSW7Y85yx0ZXmLtu31TOxsnek5NLzcSXog9TGJdYYB2x4CJED2iE1zmDZuhlGuR5a",
    "latitude": 4.648192,
    "longitude": 52.617507
  },
  {
    "id": "marker-110",
    "name": "GP Groot Total Heiloo",
    "address": "Vennewatersweg 2A, 1852 PT, Heiloo, Nederland",
    "imageUrl": "https://lh3.googleusercontent.com/IT2gbAip6StRHkmGQis6wbbjvXSebPK9GvLab4Ml8bCfG8DCJSDG5oxSepshXBQfCj9zudEUSW7Y85yx0ZXmLtu31TOxsnek5NLzcSXog9TGJdYYB2x4CJED2iE1zmDZuhlGuR5a",
    "latitude": 4.687141,
    "longitude": 52.593837
  },
  {
    "id": "marker-111",
    "name": "GP Groot Total Middenmeer",
    "address": "Zuiderzeeweg 2A, 1775 PS, Middenmeer, Nederland",
    "imageUrl": "https://lh3.googleusercontent.com/IT2gbAip6StRHkmGQis6wbbjvXSebPK9GvLab4Ml8bCfG8DCJSDG5oxSepshXBQfCj9zudEUSW7Y85yx0ZXmLtu31TOxsnek5NLzcSXog9TGJdYYB2x4CJED2iE1zmDZuhlGuR5a",
    "latitude": 4.984737,
    "longitude": 52.812391
  },
  {
    "id": "marker-112",
    "name": "GP Groot Total Opmeer",
    "address": "Lindengracht 28, 1716 DD, Opmeer, Nederland",
    "imageUrl": "https://lh3.googleusercontent.com/IT2gbAip6StRHkmGQis6wbbjvXSebPK9GvLab4Ml8bCfG8DCJSDG5oxSepshXBQfCj9zudEUSW7Y85yx0ZXmLtu31TOxsnek5NLzcSXog9TGJdYYB2x4CJED2iE1zmDZuhlGuR5a",
    "latitude": 4.950872,
    "longitude": 52.704723
  },
  {
    "id": "marker-113",
    "name": "GP Groot Total Express Den Burg",
    "address": "Bernhardlaan 170, 1791 XJ, Den Burg (Texel), Nederland",
    "imageUrl": "https://lh3.googleusercontent.com/IT2gbAip6StRHkmGQis6wbbjvXSebPK9GvLab4Ml8bCfG8DCJSDG5oxSepshXBQfCj9zudEUSW7Y85yx0ZXmLtu31TOxsnek5NLzcSXog9TGJdYYB2x4CJED2iE1zmDZuhlGuR5a",
    "latitude": 4.797887,
    "longitude": 53.059254
  },
  {
    "id": "marker-114",
    "name": "OKQ8 Åkersberga Rallarvägen 2",
    "address": "Rallarvägen 2, 18440, Åkersberga, Zweden",
    "imageUrl": "https://lh3.googleusercontent.com/IT2gbAip6StRHkmGQis6wbbjvXSebPK9GvLab4Ml8bCfG8DCJSDG5oxSepshXBQfCj9zudEUSW7Y85yx0ZXmLtu31TOxsnek5NLzcSXog9TGJdYYB2x4CJED2iE1zmDZuhlGuR5a",
    "latitude": 18.283221,
    "longitude": 59.481278
  },
  {
    "id": "marker-115",
    "name": "OKQ8 Alfta Krangatan",
    "address": "Krangatan 1 A, 82231, Alfta, Zweden",
    "imageUrl": "https://lh3.googleusercontent.com/IT2gbAip6StRHkmGQis6wbbjvXSebPK9GvLab4Ml8bCfG8DCJSDG5oxSepshXBQfCj9zudEUSW7Y85yx0ZXmLtu31TOxsnek5NLzcSXog9TGJdYYB2x4CJED2iE1zmDZuhlGuR5a",
    "latitude": 16.058572,
    "longitude": 61.345233
  },
  {
    "id": "marker-116",
    "name": "OKQ8 Alingsås Kristineholmsv",
    "address": "Kristineholmsvägen, 44132, Alingsås, Zweden",
    "imageUrl": "https://lh3.googleusercontent.com/IT2gbAip6StRHkmGQis6wbbjvXSebPK9GvLab4Ml8bCfG8DCJSDG5oxSepshXBQfCj9zudEUSW7Y85yx0ZXmLtu31TOxsnek5NLzcSXog9TGJdYYB2x4CJED2iE1zmDZuhlGuR5a",
    "latitude": 12.530614,
    "longitude": 57.924532
  },
  {
    "id": "marker-117",
    "name": "OKQ8 Ängelholm Östra Vägen",
    "address": "Östra Vägen 17, 26251, Ängelholm, Zweden",
    "imageUrl": "https://lh3.googleusercontent.com/IT2gbAip6StRHkmGQis6wbbjvXSebPK9GvLab4Ml8bCfG8DCJSDG5oxSepshXBQfCj9zudEUSW7Y85yx0ZXmLtu31TOxsnek5NLzcSXog9TGJdYYB2x4CJED2iE1zmDZuhlGuR5a",
    "latitude": 12.87625,
    "longitude": 56.237928
  },
  {
    "id": "marker-118",
    "name": "OKQ8 Arboga Sätra, Mälarporten",
    "address": "Sätra Trafikplats E18-E20, 73250, Arboga, Zweden",
    "imageUrl": "https://lh3.googleusercontent.com/IT2gbAip6StRHkmGQis6wbbjvXSebPK9GvLab4Ml8bCfG8DCJSDG5oxSepshXBQfCj9zudEUSW7Y85yx0ZXmLtu31TOxsnek5NLzcSXog9TGJdYYB2x4CJED2iE1zmDZuhlGuR5a",
    "latitude": 15.831627,
    "longitude": 59.426233
  },
  {
    "id": "marker-119",
    "name": "OKQ8 Arlandastad Servogatan",
    "address": "Servogatan 12, 19560, Arlandastad, Zweden",
    "imageUrl": "https://lh3.googleusercontent.com/IT2gbAip6StRHkmGQis6wbbjvXSebPK9GvLab4Ml8bCfG8DCJSDG5oxSepshXBQfCj9zudEUSW7Y85yx0ZXmLtu31TOxsnek5NLzcSXog9TGJdYYB2x4CJED2iE1zmDZuhlGuR5a",
    "latitude": 17.873847,
    "longitude": 59.614642
  },
  {
    "id": "marker-120",
    "name": "OKQ8 Arlöv Lundavägen",
    "address": "Lundavägen 9, 23235, Arlöv, Zweden",
    "imageUrl": "https://lh3.googleusercontent.com/IT2gbAip6StRHkmGQis6wbbjvXSebPK9GvLab4Ml8bCfG8DCJSDG5oxSepshXBQfCj9zudEUSW7Y85yx0ZXmLtu31TOxsnek5NLzcSXog9TGJdYYB2x4CJED2iE1zmDZuhlGuR5a",
    "latitude": 13.065116,
    "longitude": 55.635393
  },
  {
    "id": "marker-121",
    "name": "OKQ8 Stora Bernstorp",
    "address": "Vassvägen 20, 23261, Arlöv, Zweden",
    "imageUrl": "https://lh3.googleusercontent.com/IT2gbAip6StRHkmGQis6wbbjvXSebPK9GvLab4Ml8bCfG8DCJSDG5oxSepshXBQfCj9zudEUSW7Y85yx0ZXmLtu31TOxsnek5NLzcSXog9TGJdYYB2x4CJED2iE1zmDZuhlGuR5a",
    "latitude": 13.101611,
    "longitude": 55.611616
  },
  {
    "id": "marker-122",
    "name": "OKQ8 Årsta Partihandlarvägen",
    "address": "Partihandlarvägen 20, 12044, Årsta, Zweden",
    "imageUrl": "https://lh3.googleusercontent.com/IT2gbAip6StRHkmGQis6wbbjvXSebPK9GvLab4Ml8bCfG8DCJSDG5oxSepshXBQfCj9zudEUSW7Y85yx0ZXmLtu31TOxsnek5NLzcSXog9TGJdYYB2x4CJED2iE1zmDZuhlGuR5a",
    "latitude": 18.033309,
    "longitude": 59.296118
  },
  {
    "id": "marker-123",
    "name": "OKQ8 Arvidsjaur Storgatan",
    "address": "Storgatan 5, 93331, Arvidsjaur, Zweden",
    "imageUrl": "https://lh3.googleusercontent.com/IT2gbAip6StRHkmGQis6wbbjvXSebPK9GvLab4Ml8bCfG8DCJSDG5oxSepshXBQfCj9zudEUSW7Y85yx0ZXmLtu31TOxsnek5NLzcSXog9TGJdYYB2x4CJED2iE1zmDZuhlGuR5a",
    "latitude": 19.170878,
    "longitude": 65.594751
  },
  {
    "id": "marker-124",
    "name": "OKQ8 Arvika Blästervägen",
    "address": "Blästervägen 2, 67141, Arvika, Zweden",
    "imageUrl": "https://lh3.googleusercontent.com/IT2gbAip6StRHkmGQis6wbbjvXSebPK9GvLab4Ml8bCfG8DCJSDG5oxSepshXBQfCj9zudEUSW7Y85yx0ZXmLtu31TOxsnek5NLzcSXog9TGJdYYB2x4CJED2iE1zmDZuhlGuR5a",
    "latitude": 12.593125,
    "longitude": 59.669428
  },
  {
    "id": "marker-125",
    "name": "OKQ8 Arvika Karlstadsv",
    "address": "Karlstadsvägen (6199), 67142, Arvika, Zweden",
    "imageUrl": "https://lh3.googleusercontent.com/IT2gbAip6StRHkmGQis6wbbjvXSebPK9GvLab4Ml8bCfG8DCJSDG5oxSepshXBQfCj9zudEUSW7Y85yx0ZXmLtu31TOxsnek5NLzcSXog9TGJdYYB2x4CJED2iE1zmDZuhlGuR5a",
    "latitude": 12.6104116,
    "longitude": 59.6607692
  },
  {
    "id": "marker-126",
    "name": "OKQ8 Bollnäs Fabriksg",
    "address": "Fabriksgatan 2, 82133, Bollnäs, Zweden",
    "imageUrl": "https://lh3.googleusercontent.com/IT2gbAip6StRHkmGQis6wbbjvXSebPK9GvLab4Ml8bCfG8DCJSDG5oxSepshXBQfCj9zudEUSW7Y85yx0ZXmLtu31TOxsnek5NLzcSXog9TGJdYYB2x4CJED2iE1zmDZuhlGuR5a",
    "latitude": 16.390653,
    "longitude": 61.353774
  },
  {
    "id": "marker-127",
    "name": "OKQ8 Borgholm Storgatan",
    "address": "Storgatan 77, 38734, Borgholm, Zweden",
    "imageUrl": "https://lh3.googleusercontent.com/IT2gbAip6StRHkmGQis6wbbjvXSebPK9GvLab4Ml8bCfG8DCJSDG5oxSepshXBQfCj9zudEUSW7Y85yx0ZXmLtu31TOxsnek5NLzcSXog9TGJdYYB2x4CJED2iE1zmDZuhlGuR5a",
    "latitude": 16.667835,
    "longitude": 56.873801
  },
  {
    "id": "marker-128",
    "name": "OKQ8 Borlänge Bygatan",
    "address": "Bygatan 33, 78434, Borlänge, Zweden",
    "imageUrl": "https://lh3.googleusercontent.com/IT2gbAip6StRHkmGQis6wbbjvXSebPK9GvLab4Ml8bCfG8DCJSDG5oxSepshXBQfCj9zudEUSW7Y85yx0ZXmLtu31TOxsnek5NLzcSXog9TGJdYYB2x4CJED2iE1zmDZuhlGuR5a",
    "latitude": 15.437185,
    "longitude": 60.478594
  },
  {
    "id": "marker-129",
    "name": "OKQ8 Borlänge Norra Backa",
    "address": "Bäckelundsgatan 2, 78170, Borlänge, Zweden",
    "imageUrl": "https://lh3.googleusercontent.com/IT2gbAip6StRHkmGQis6wbbjvXSebPK9GvLab4Ml8bCfG8DCJSDG5oxSepshXBQfCj9zudEUSW7Y85yx0ZXmLtu31TOxsnek5NLzcSXog9TGJdYYB2x4CJED2iE1zmDZuhlGuR5a",
    "latitude": 15.4128,
    "longitude": 60.478572
  },
  {
    "id": "marker-130",
    "name": "OKQ8 Bredbyn",
    "address": "Bondegatan 8, 89530, Bredbyn, Zweden",
    "imageUrl": "https://lh3.googleusercontent.com/IT2gbAip6StRHkmGQis6wbbjvXSebPK9GvLab4Ml8bCfG8DCJSDG5oxSepshXBQfCj9zudEUSW7Y85yx0ZXmLtu31TOxsnek5NLzcSXog9TGJdYYB2x4CJED2iE1zmDZuhlGuR5a",
    "latitude": 18.114036,
    "longitude": 63.446672
  },
  {
    "id": "marker-131",
    "name": "OKQ8 Bromma",
    "address": "Brommaplan, 16876, Bromma, Zweden",
    "imageUrl": "https://lh3.googleusercontent.com/IT2gbAip6StRHkmGQis6wbbjvXSebPK9GvLab4Ml8bCfG8DCJSDG5oxSepshXBQfCj9zudEUSW7Y85yx0ZXmLtu31TOxsnek5NLzcSXog9TGJdYYB2x4CJED2iE1zmDZuhlGuR5a",
    "latitude": 17.9383865,
    "longitude": 59.338385
  },
  {
    "id": "marker-132",
    "name": "OKQ8 Bromölla (Bellas Place)",
    "address": "Kristianstadsvägen 782, 29539, Bromölla, Zweden",
    "imageUrl": "https://lh3.googleusercontent.com/IT2gbAip6StRHkmGQis6wbbjvXSebPK9GvLab4Ml8bCfG8DCJSDG5oxSepshXBQfCj9zudEUSW7Y85yx0ZXmLtu31TOxsnek5NLzcSXog9TGJdYYB2x4CJED2iE1zmDZuhlGuR5a",
    "latitude": 14.496438,
    "longitude": 56.064238
  },
  {
    "id": "marker-133",
    "name": "OKQ8 Burträsk",
    "address": "Sundbrogatan 7, 93731, Burträsk, Zweden",
    "imageUrl": "https://lh3.googleusercontent.com/IT2gbAip6StRHkmGQis6wbbjvXSebPK9GvLab4Ml8bCfG8DCJSDG5oxSepshXBQfCj9zudEUSW7Y85yx0ZXmLtu31TOxsnek5NLzcSXog9TGJdYYB2x4CJED2iE1zmDZuhlGuR5a",
    "latitude": 20.659831,
    "longitude": 64.521285
  },
  {
    "id": "marker-134",
    "name": "OKQ8 Djurås Södra Industrivägen",
    "address": "Södra Industrivägen 2, 78561, Djurås, Zweden",
    "imageUrl": "https://lh3.googleusercontent.com/IT2gbAip6StRHkmGQis6wbbjvXSebPK9GvLab4Ml8bCfG8DCJSDG5oxSepshXBQfCj9zudEUSW7Y85yx0ZXmLtu31TOxsnek5NLzcSXog9TGJdYYB2x4CJED2iE1zmDZuhlGuR5a",
    "latitude": 15.135067,
    "longitude": 60.560455
  },
  {
    "id": "marker-135",
    "name": "OKQ8 Eksjö Stallbergav",
    "address": "Stallbergavägen 22, 57537, Eksjö, Zweden",
    "imageUrl": "https://lh3.googleusercontent.com/IT2gbAip6StRHkmGQis6wbbjvXSebPK9GvLab4Ml8bCfG8DCJSDG5oxSepshXBQfCj9zudEUSW7Y85yx0ZXmLtu31TOxsnek5NLzcSXog9TGJdYYB2x4CJED2iE1zmDZuhlGuR5a",
    "latitude": 14.975042,
    "longitude": 57.653859
  },
  {
    "id": "marker-136",
    "name": "OKQ8 Eskilstuna Folkesta",
    "address": "Tp 130/E20 Folkesta, 63510, Eskilstuna, Zweden",
    "imageUrl": "https://lh3.googleusercontent.com/IT2gbAip6StRHkmGQis6wbbjvXSebPK9GvLab4Ml8bCfG8DCJSDG5oxSepshXBQfCj9zudEUSW7Y85yx0ZXmLtu31TOxsnek5NLzcSXog9TGJdYYB2x4CJED2iE1zmDZuhlGuR5a",
    "latitude": 16.445896,
    "longitude": 59.399117
  },
  {
    "id": "marker-137",
    "name": "OKQ8 Eskilstuna Skjulstagatan",
    "address": "Skjulstagatan 2, 63229, Eskilstuna, Zweden",
    "imageUrl": "https://lh3.googleusercontent.com/IT2gbAip6StRHkmGQis6wbbjvXSebPK9GvLab4Ml8bCfG8DCJSDG5oxSepshXBQfCj9zudEUSW7Y85yx0ZXmLtu31TOxsnek5NLzcSXog9TGJdYYB2x4CJED2iE1zmDZuhlGuR5a",
    "latitude": 16.485814,
    "longitude": 59.341962
  },
  {
    "id": "marker-138",
    "name": "OKQ8 Eskilstuna Västerg",
    "address": "Västergatan 13, 63344, Eskilstuna, Zweden",
    "imageUrl": "https://lh3.googleusercontent.com/IT2gbAip6StRHkmGQis6wbbjvXSebPK9GvLab4Ml8bCfG8DCJSDG5oxSepshXBQfCj9zudEUSW7Y85yx0ZXmLtu31TOxsnek5NLzcSXog9TGJdYYB2x4CJED2iE1zmDZuhlGuR5a",
    "latitude": 16.519761,
    "longitude": 59.377716
  },
  {
    "id": "marker-139",
    "name": "OKQ8 Eslöv Flygstaden",
    "address": "Fallskärmsgatan 1, 24138, Eslöv, Zweden",
    "imageUrl": "https://lh3.googleusercontent.com/IT2gbAip6StRHkmGQis6wbbjvXSebPK9GvLab4Ml8bCfG8DCJSDG5oxSepshXBQfCj9zudEUSW7Y85yx0ZXmLtu31TOxsnek5NLzcSXog9TGJdYYB2x4CJED2iE1zmDZuhlGuR5a",
    "latitude": 13.331376,
    "longitude": 55.843186
  },
  {
    "id": "marker-140",
    "name": "OKQ8 Fagersta Norbergsv",
    "address": "Norbergsvägen 2, 73748, Fagersta, Zweden",
    "imageUrl": "https://lh3.googleusercontent.com/IT2gbAip6StRHkmGQis6wbbjvXSebPK9GvLab4Ml8bCfG8DCJSDG5oxSepshXBQfCj9zudEUSW7Y85yx0ZXmLtu31TOxsnek5NLzcSXog9TGJdYYB2x4CJED2iE1zmDZuhlGuR5a",
    "latitude": 15.786551,
    "longitude": 60.007902
  },
  {
    "id": "marker-141",
    "name": "OKQ8 Falkenberg Årstadsvägen",
    "address": "Årstadsvägen, 31191, Falkenberg, Zweden",
    "imageUrl": "https://lh3.googleusercontent.com/IT2gbAip6StRHkmGQis6wbbjvXSebPK9GvLab4Ml8bCfG8DCJSDG5oxSepshXBQfCj9zudEUSW7Y85yx0ZXmLtu31TOxsnek5NLzcSXog9TGJdYYB2x4CJED2iE1zmDZuhlGuR5a",
    "latitude": 12.442589,
    "longitude": 56.9043
  },
  {
    "id": "marker-142",
    "name": "OKQ8 Falun Ingarvsvägen",
    "address": "Ingarvsvägen 1, 79173, Falun, Zweden",
    "imageUrl": "https://lh3.googleusercontent.com/IT2gbAip6StRHkmGQis6wbbjvXSebPK9GvLab4Ml8bCfG8DCJSDG5oxSepshXBQfCj9zudEUSW7Y85yx0ZXmLtu31TOxsnek5NLzcSXog9TGJdYYB2x4CJED2iE1zmDZuhlGuR5a",
    "latitude": 15.602478,
    "longitude": 60.60468
  },
  {
    "id": "marker-143",
    "name": "OKQ8 Färjestaden Algutsrum",
    "address": "Törnbottenvägen, 38690, Färjestaden, Zweden",
    "imageUrl": "https://lh3.googleusercontent.com/IT2gbAip6StRHkmGQis6wbbjvXSebPK9GvLab4Ml8bCfG8DCJSDG5oxSepshXBQfCj9zudEUSW7Y85yx0ZXmLtu31TOxsnek5NLzcSXog9TGJdYYB2x4CJED2iE1zmDZuhlGuR5a",
    "latitude": 16.516427,
    "longitude": 56.677857
  },
  {
    "id": "marker-144",
    "name": "OKQ8 Filipstad Konsul Lundstr.V",
    "address": "Konsul Lundströms Väg 2, 68233, Filipstad, Zweden",
    "imageUrl": "https://lh3.googleusercontent.com/IT2gbAip6StRHkmGQis6wbbjvXSebPK9GvLab4Ml8bCfG8DCJSDG5oxSepshXBQfCj9zudEUSW7Y85yx0ZXmLtu31TOxsnek5NLzcSXog9TGJdYYB2x4CJED2iE1zmDZuhlGuR5a",
    "latitude": 14.153852,
    "longitude": 59.713192
  },
  {
    "id": "marker-145",
    "name": "OKQ8 Finspång Norrköpingsv",
    "address": "Norrköpingsvägen 26, 61244, Finspång, Zweden",
    "imageUrl": "https://lh3.googleusercontent.com/IT2gbAip6StRHkmGQis6wbbjvXSebPK9GvLab4Ml8bCfG8DCJSDG5oxSepshXBQfCj9zudEUSW7Y85yx0ZXmLtu31TOxsnek5NLzcSXog9TGJdYYB2x4CJED2iE1zmDZuhlGuR5a",
    "latitude": 15.79331,
    "longitude": 58.704008
  },
  {
    "id": "marker-146",
    "name": "OKQ8 Flen Brogatan",
    "address": "Brogatan 6, 64234, Flen, Zweden",
    "imageUrl": "https://lh3.googleusercontent.com/IT2gbAip6StRHkmGQis6wbbjvXSebPK9GvLab4Ml8bCfG8DCJSDG5oxSepshXBQfCj9zudEUSW7Y85yx0ZXmLtu31TOxsnek5NLzcSXog9TGJdYYB2x4CJED2iE1zmDZuhlGuR5a",
    "latitude": 16.597324,
    "longitude": 59.051248
  },
  {
    "id": "marker-147",
    "name": "OKQ8 Forshaga Storgatan",
    "address": "Storgatan 2, 66730, Forshaga, Zweden",
    "imageUrl": "https://lh3.googleusercontent.com/IT2gbAip6StRHkmGQis6wbbjvXSebPK9GvLab4Ml8bCfG8DCJSDG5oxSepshXBQfCj9zudEUSW7Y85yx0ZXmLtu31TOxsnek5NLzcSXog9TGJdYYB2x4CJED2iE1zmDZuhlGuR5a",
    "latitude": 13.472698,
    "longitude": 59.526635
  },
  {
    "id": "marker-148",
    "name": "OKQ8 Fristad",
    "address": "Stora Vägen 24, 51334, Fristad, Zweden",
    "imageUrl": "https://lh3.googleusercontent.com/IT2gbAip6StRHkmGQis6wbbjvXSebPK9GvLab4Ml8bCfG8DCJSDG5oxSepshXBQfCj9zudEUSW7Y85yx0ZXmLtu31TOxsnek5NLzcSXog9TGJdYYB2x4CJED2iE1zmDZuhlGuR5a",
    "latitude": 13.008757,
    "longitude": 57.82404
  },
  {
    "id": "marker-149",
    "name": "OKQ8 Gällivare Metallvägen",
    "address": "Metallvägen Ind Område, 98234, Gällivare, Zweden",
    "imageUrl": "https://lh3.googleusercontent.com/IT2gbAip6StRHkmGQis6wbbjvXSebPK9GvLab4Ml8bCfG8DCJSDG5oxSepshXBQfCj9zudEUSW7Y85yx0ZXmLtu31TOxsnek5NLzcSXog9TGJdYYB2x4CJED2iE1zmDZuhlGuR5a",
    "latitude": 20.680801,
    "longitude": 67.131625
  },
  {
    "id": "marker-150",
    "name": "OKQ8 Gällö",
    "address": "E 14, 84050, Gällö, Zweden",
    "imageUrl": "https://lh3.googleusercontent.com/IT2gbAip6StRHkmGQis6wbbjvXSebPK9GvLab4Ml8bCfG8DCJSDG5oxSepshXBQfCj9zudEUSW7Y85yx0ZXmLtu31TOxsnek5NLzcSXog9TGJdYYB2x4CJED2iE1zmDZuhlGuR5a",
    "latitude": 15.2667011,
    "longitude": 62.8898536
  },
  {
    "id": "marker-151",
    "name": "OKQ8 Gävle Skogmursvägen",
    "address": "Skogmursvägen 37, 80269, Gävle, Zweden",
    "imageUrl": "https://lh3.googleusercontent.com/IT2gbAip6StRHkmGQis6wbbjvXSebPK9GvLab4Ml8bCfG8DCJSDG5oxSepshXBQfCj9zudEUSW7Y85yx0ZXmLtu31TOxsnek5NLzcSXog9TGJdYYB2x4CJED2iE1zmDZuhlGuR5a",
    "latitude": 17.133878,
    "longitude": 60.656563
  },
  {
    "id": "marker-152",
    "name": "OKQ8 Glumslöv Norrgående",
    "address": "Väg E6/E20, 26163, Glumslöv, Zweden",
    "imageUrl": "https://lh3.googleusercontent.com/IT2gbAip6StRHkmGQis6wbbjvXSebPK9GvLab4Ml8bCfG8DCJSDG5oxSepshXBQfCj9zudEUSW7Y85yx0ZXmLtu31TOxsnek5NLzcSXog9TGJdYYB2x4CJED2iE1zmDZuhlGuR5a",
    "latitude": 12.801468,
    "longitude": 55.939987
  },
  {
    "id": "marker-153",
    "name": "OKQ8 Glumslöv Södergående",
    "address": "Väg E6/E20, 26162, Glumslöv, Zweden",
    "imageUrl": "https://lh3.googleusercontent.com/IT2gbAip6StRHkmGQis6wbbjvXSebPK9GvLab4Ml8bCfG8DCJSDG5oxSepshXBQfCj9zudEUSW7Y85yx0ZXmLtu31TOxsnek5NLzcSXog9TGJdYYB2x4CJED2iE1zmDZuhlGuR5a",
    "latitude": 12.810486,
    "longitude": 55.941698
  },
  {
    "id": "marker-154",
    "name": "OKQ8 Gnarp Åkne",
    "address": "Östra Stationsvägen 1 Åkne, 82960, Gnarp, Zweden",
    "imageUrl": "https://lh3.googleusercontent.com/IT2gbAip6StRHkmGQis6wbbjvXSebPK9GvLab4Ml8bCfG8DCJSDG5oxSepshXBQfCj9zudEUSW7Y85yx0ZXmLtu31TOxsnek5NLzcSXog9TGJdYYB2x4CJED2iE1zmDZuhlGuR5a",
    "latitude": 17.266327,
    "longitude": 62.056517
  },
  {
    "id": "marker-155",
    "name": "OKQ8 Göteborg Gasklockan",
    "address": "Falutorget, 41104, Göteborg, Zweden",
    "imageUrl": "https://lh3.googleusercontent.com/IT2gbAip6StRHkmGQis6wbbjvXSebPK9GvLab4Ml8bCfG8DCJSDG5oxSepshXBQfCj9zudEUSW7Y85yx0ZXmLtu31TOxsnek5NLzcSXog9TGJdYYB2x4CJED2iE1zmDZuhlGuR5a",
    "latitude": 11.986559,
    "longitude": 57.71737
  },
  {
    "id": "marker-156",
    "name": "OKQ8 Gustavsberg Bleksängsvägen",
    "address": "Bleksängsvägen 1, 13430, Gustavsberg, Zweden",
    "imageUrl": "https://lh3.googleusercontent.com/IT2gbAip6StRHkmGQis6wbbjvXSebPK9GvLab4Ml8bCfG8DCJSDG5oxSepshXBQfCj9zudEUSW7Y85yx0ZXmLtu31TOxsnek5NLzcSXog9TGJdYYB2x4CJED2iE1zmDZuhlGuR5a",
    "latitude": 18.39221,
    "longitude": 59.328791
  },
  {
    "id": "marker-157",
    "name": "OKQ8 Hägersten Kontrollvägen",
    "address": "Kontrollvägen 2, 12679, Hägersten, Zweden",
    "imageUrl": "https://lh3.googleusercontent.com/IT2gbAip6StRHkmGQis6wbbjvXSebPK9GvLab4Ml8bCfG8DCJSDG5oxSepshXBQfCj9zudEUSW7Y85yx0ZXmLtu31TOxsnek5NLzcSXog9TGJdYYB2x4CJED2iE1zmDZuhlGuR5a",
    "latitude": 18.002242,
    "longitude": 59.294268
  },
  {
    "id": "marker-158",
    "name": "OKQ8 Hallsberg Samzeliigatan",
    "address": "Samzeliigatan, 69432, Hallsberg, Zweden",
    "imageUrl": "https://lh3.googleusercontent.com/IT2gbAip6StRHkmGQis6wbbjvXSebPK9GvLab4Ml8bCfG8DCJSDG5oxSepshXBQfCj9zudEUSW7Y85yx0ZXmLtu31TOxsnek5NLzcSXog9TGJdYYB2x4CJED2iE1zmDZuhlGuR5a",
    "latitude": 15.099219,
    "longitude": 59.0713334
  },
  {
    "id": "marker-159",
    "name": "OKQ8 Halmstad Frennarpsvägen",
    "address": "Frennarpsvägen, 30244, Halmstad, Zweden",
    "imageUrl": "https://lh3.googleusercontent.com/IT2gbAip6StRHkmGQis6wbbjvXSebPK9GvLab4Ml8bCfG8DCJSDG5oxSepshXBQfCj9zudEUSW7Y85yx0ZXmLtu31TOxsnek5NLzcSXog9TGJdYYB2x4CJED2iE1zmDZuhlGuR5a",
    "latitude": 12.885312,
    "longitude": 56.681127
  },
  {
    "id": "marker-160",
    "name": "OKQ8 Hammarö Aut",
    "address": "Bivägen, 66341, Hammarö, Zweden",
    "imageUrl": "https://lh3.googleusercontent.com/IT2gbAip6StRHkmGQis6wbbjvXSebPK9GvLab4Ml8bCfG8DCJSDG5oxSepshXBQfCj9zudEUSW7Y85yx0ZXmLtu31TOxsnek5NLzcSXog9TGJdYYB2x4CJED2iE1zmDZuhlGuR5a",
    "latitude": 13.527967,
    "longitude": 59.334114
  },
  {
    "id": "marker-161",
    "name": "OKQ8 Handen Jordbrorondell Nynäsv",
    "address": "Nynäsvägen 130, 13640, Handen, Zweden",
    "imageUrl": "https://lh3.googleusercontent.com/IT2gbAip6StRHkmGQis6wbbjvXSebPK9GvLab4Ml8bCfG8DCJSDG5oxSepshXBQfCj9zudEUSW7Y85yx0ZXmLtu31TOxsnek5NLzcSXog9TGJdYYB2x4CJED2iE1zmDZuhlGuR5a",
    "latitude": 18.134468,
    "longitude": 59.156486
  },
  {
    "id": "marker-162",
    "name": "OKQ8 Ids Haninge-Jordbro",
    "address": "Traversvägen 11, 13602, Haninge, Zweden",
    "imageUrl": "https://lh3.googleusercontent.com/IT2gbAip6StRHkmGQis6wbbjvXSebPK9GvLab4Ml8bCfG8DCJSDG5oxSepshXBQfCj9zudEUSW7Y85yx0ZXmLtu31TOxsnek5NLzcSXog9TGJdYYB2x4CJED2iE1zmDZuhlGuR5a",
    "latitude": 18.114783,
    "longitude": 59.145893
  },
  {
    "id": "marker-163",
    "name": "OKQ8 Haninge Nynäsvägen",
    "address": "Nynäsvägen 23, 13647, Haninge, Zweden",
    "imageUrl": "https://lh3.googleusercontent.com/IT2gbAip6StRHkmGQis6wbbjvXSebPK9GvLab4Ml8bCfG8DCJSDG5oxSepshXBQfCj9zudEUSW7Y85yx0ZXmLtu31TOxsnek5NLzcSXog9TGJdYYB2x4CJED2iE1zmDZuhlGuR5a",
    "latitude": 18.144744,
    "longitude": 59.178337
  },
  {
    "id": "marker-164",
    "name": "OKQ8 Härnösand Kaptensgatan",
    "address": "Kaptensgatan 4, 87152, Härnösand, Zweden",
    "imageUrl": "https://lh3.googleusercontent.com/IT2gbAip6StRHkmGQis6wbbjvXSebPK9GvLab4Ml8bCfG8DCJSDG5oxSepshXBQfCj9zudEUSW7Y85yx0ZXmLtu31TOxsnek5NLzcSXog9TGJdYYB2x4CJED2iE1zmDZuhlGuR5a",
    "latitude": 17.92677,
    "longitude": 62.635755
  },
  {
    "id": "marker-165",
    "name": "OKQ8 Härnösand Saltviksvägen",
    "address": "Saltviksvägen 7, 87154, Härnösand, Zweden",
    "imageUrl": "https://lh3.googleusercontent.com/IT2gbAip6StRHkmGQis6wbbjvXSebPK9GvLab4Ml8bCfG8DCJSDG5oxSepshXBQfCj9zudEUSW7Y85yx0ZXmLtu31TOxsnek5NLzcSXog9TGJdYYB2x4CJED2iE1zmDZuhlGuR5a",
    "latitude": 17.895176,
    "longitude": 62.649772
  },
  {
    "id": "marker-166",
    "name": "OKQ8 Hede Råndalsvägen",
    "address": "Råndalsvägen 2, 84093, Hede, Zweden",
    "imageUrl": "https://lh3.googleusercontent.com/IT2gbAip6StRHkmGQis6wbbjvXSebPK9GvLab4Ml8bCfG8DCJSDG5oxSepshXBQfCj9zudEUSW7Y85yx0ZXmLtu31TOxsnek5NLzcSXog9TGJdYYB2x4CJED2iE1zmDZuhlGuR5a",
    "latitude": 13.515198,
    "longitude": 62.420095
  },
  {
    "id": "marker-167",
    "name": "OKQ8 Hedemora Tviksta",
    "address": "Tviksta, 77630, Hedemora, Zweden",
    "imageUrl": "https://lh3.googleusercontent.com/IT2gbAip6StRHkmGQis6wbbjvXSebPK9GvLab4Ml8bCfG8DCJSDG5oxSepshXBQfCj9zudEUSW7Y85yx0ZXmLtu31TOxsnek5NLzcSXog9TGJdYYB2x4CJED2iE1zmDZuhlGuR5a",
    "latitude": 15.987029,
    "longitude": 60.2786
  },
  {
    "id": "marker-168",
    "name": "OKQ8 Helsingborg Välavägen",
    "address": "Välavägen 27, 25464, Helsingborg, Zweden",
    "imageUrl": "https://lh3.googleusercontent.com/IT2gbAip6StRHkmGQis6wbbjvXSebPK9GvLab4Ml8bCfG8DCJSDG5oxSepshXBQfCj9zudEUSW7Y85yx0ZXmLtu31TOxsnek5NLzcSXog9TGJdYYB2x4CJED2iE1zmDZuhlGuR5a",
    "latitude": 12.748153,
    "longitude": 56.065474
  },
  {
    "id": "marker-169",
    "name": "OKQ8 Hemse Automat",
    "address": "Ronevägen, 62350, Hemse, Zweden",
    "imageUrl": "https://lh3.googleusercontent.com/IT2gbAip6StRHkmGQis6wbbjvXSebPK9GvLab4Ml8bCfG8DCJSDG5oxSepshXBQfCj9zudEUSW7Y85yx0ZXmLtu31TOxsnek5NLzcSXog9TGJdYYB2x4CJED2iE1zmDZuhlGuR5a",
    "latitude": 18.380019,
    "longitude": 57.240149
  },
  {
    "id": "marker-170",
    "name": "OKQ8 Höllviken",
    "address": "Stenbocksväg 1, 23651, Höllviken, Zweden",
    "imageUrl": "https://lh3.googleusercontent.com/IT2gbAip6StRHkmGQis6wbbjvXSebPK9GvLab4Ml8bCfG8DCJSDG5oxSepshXBQfCj9zudEUSW7Y85yx0ZXmLtu31TOxsnek5NLzcSXog9TGJdYYB2x4CJED2iE1zmDZuhlGuR5a",
    "latitude": 12.952144,
    "longitude": 55.421155
  },
  {
    "id": "marker-171",
    "name": "OKQ8 Höör Björkgatan",
    "address": "Björkgatan 58, 24334, Höör, Zweden",
    "imageUrl": "https://lh3.googleusercontent.com/IT2gbAip6StRHkmGQis6wbbjvXSebPK9GvLab4Ml8bCfG8DCJSDG5oxSepshXBQfCj9zudEUSW7Y85yx0ZXmLtu31TOxsnek5NLzcSXog9TGJdYYB2x4CJED2iE1zmDZuhlGuR5a",
    "latitude": 13.547995,
    "longitude": 55.926038
  },
  {
    "id": "marker-172",
    "name": "OKQ8 Huddinge Huddingevägen",
    "address": "Huddingevägen 367, 14138, Huddinge, Zweden",
    "imageUrl": "https://lh3.googleusercontent.com/IT2gbAip6StRHkmGQis6wbbjvXSebPK9GvLab4Ml8bCfG8DCJSDG5oxSepshXBQfCj9zudEUSW7Y85yx0ZXmLtu31TOxsnek5NLzcSXog9TGJdYYB2x4CJED2iE1zmDZuhlGuR5a",
    "latitude": 18.000582,
    "longitude": 59.245534
  },
  {
    "id": "marker-173",
    "name": "OKQ8 Huddinge Ågestavägen",
    "address": "Ågestavägen 2-8, 14137, Huddinge, Zweden",
    "imageUrl": "https://lh3.googleusercontent.com/IT2gbAip6StRHkmGQis6wbbjvXSebPK9GvLab4Ml8bCfG8DCJSDG5oxSepshXBQfCj9zudEUSW7Y85yx0ZXmLtu31TOxsnek5NLzcSXog9TGJdYYB2x4CJED2iE1zmDZuhlGuR5a",
    "latitude": 18.015341,
    "longitude": 59.247854
  },
  {
    "id": "marker-174",
    "name": "OKQ8 Hudiksvall Helsingeporten",
    "address": "Trafikplats E4 / Rv84, 82492, Hudiksvall, Zweden",
    "imageUrl": "https://lh3.googleusercontent.com/IT2gbAip6StRHkmGQis6wbbjvXSebPK9GvLab4Ml8bCfG8DCJSDG5oxSepshXBQfCj9zudEUSW7Y85yx0ZXmLtu31TOxsnek5NLzcSXog9TGJdYYB2x4CJED2iE1zmDZuhlGuR5a",
    "latitude": 17.009513,
    "longitude": 61.782741
  },
  {
    "id": "marker-175",
    "name": "OKQ8 Hudiksvall Södra Vägen",
    "address": "Södra Vägen 20, 82442, Hudiksvall, Zweden",
    "imageUrl": "https://lh3.googleusercontent.com/IT2gbAip6StRHkmGQis6wbbjvXSebPK9GvLab4Ml8bCfG8DCJSDG5oxSepshXBQfCj9zudEUSW7Y85yx0ZXmLtu31TOxsnek5NLzcSXog9TGJdYYB2x4CJED2iE1zmDZuhlGuR5a",
    "latitude": 17.097443,
    "longitude": 61.718554
  },
  {
    "id": "marker-176",
    "name": "OKQ8 Huskvarna Vårstarondellen",
    "address": "Vårstarondellen, 56133, Huskvarna, Zweden",
    "imageUrl": "https://lh3.googleusercontent.com/IT2gbAip6StRHkmGQis6wbbjvXSebPK9GvLab4Ml8bCfG8DCJSDG5oxSepshXBQfCj9zudEUSW7Y85yx0ZXmLtu31TOxsnek5NLzcSXog9TGJdYYB2x4CJED2iE1zmDZuhlGuR5a",
    "latitude": 14.266893,
    "longitude": 57.7885642
  },
  {
    "id": "marker-177",
    "name": "OKQ8 Jämjö Riksvägen",
    "address": "Riksvägen 2, 37300, Jämjö, Zweden",
    "imageUrl": "https://lh3.googleusercontent.com/IT2gbAip6StRHkmGQis6wbbjvXSebPK9GvLab4Ml8bCfG8DCJSDG5oxSepshXBQfCj9zudEUSW7Y85yx0ZXmLtu31TOxsnek5NLzcSXog9TGJdYYB2x4CJED2iE1zmDZuhlGuR5a",
    "latitude": 15.944336,
    "longitude": 56.254725
  },
  {
    "id": "marker-178",
    "name": "OKQ8 Jakobsberg Värmevägen 1",
    "address": "Värmevägen 1, 17757, Järfälla, Zweden",
    "imageUrl": "https://lh3.googleusercontent.com/IT2gbAip6StRHkmGQis6wbbjvXSebPK9GvLab4Ml8bCfG8DCJSDG5oxSepshXBQfCj9zudEUSW7Y85yx0ZXmLtu31TOxsnek5NLzcSXog9TGJdYYB2x4CJED2iE1zmDZuhlGuR5a",
    "latitude": 17.846859,
    "longitude": 59.428545
  },
  {
    "id": "marker-179",
    "name": "OKQ8 Järfälla Datavägen",
    "address": "Datavägen 1, 17543, Järfälla, Zweden",
    "imageUrl": "https://lh3.googleusercontent.com/IT2gbAip6StRHkmGQis6wbbjvXSebPK9GvLab4Ml8bCfG8DCJSDG5oxSepshXBQfCj9zudEUSW7Y85yx0ZXmLtu31TOxsnek5NLzcSXog9TGJdYYB2x4CJED2iE1zmDZuhlGuR5a",
    "latitude": 17.825626,
    "longitude": 59.414858
  },
  {
    "id": "marker-180",
    "name": "OKQ8 Järfälla Jättevägen 2",
    "address": "Jättevägen 2, 17677, Järfälla, Zweden",
    "imageUrl": "https://lh3.googleusercontent.com/IT2gbAip6StRHkmGQis6wbbjvXSebPK9GvLab4Ml8bCfG8DCJSDG5oxSepshXBQfCj9zudEUSW7Y85yx0ZXmLtu31TOxsnek5NLzcSXog9TGJdYYB2x4CJED2iE1zmDZuhlGuR5a",
    "latitude": 17.832957,
    "longitude": 59.450904
  },
  {
    "id": "marker-181",
    "name": "OKQ8 Järfälla Enköpingsvägen",
    "address": "Enköpingsvägen 35, 17738, Järfälla, Zweden",
    "imageUrl": "https://lh3.googleusercontent.com/IT2gbAip6StRHkmGQis6wbbjvXSebPK9GvLab4Ml8bCfG8DCJSDG5oxSepshXBQfCj9zudEUSW7Y85yx0ZXmLtu31TOxsnek5NLzcSXog9TGJdYYB2x4CJED2iE1zmDZuhlGuR5a",
    "latitude": 17.304058,
    "longitude": 59.729495
  },
  {
    "id": "marker-182",
    "name": "OKQ8 Johanneshov Arenavägen",
    "address": "Arenavägen 86, 12177, Johanneshov, Zweden",
    "imageUrl": "https://lh3.googleusercontent.com/IT2gbAip6StRHkmGQis6wbbjvXSebPK9GvLab4Ml8bCfG8DCJSDG5oxSepshXBQfCj9zudEUSW7Y85yx0ZXmLtu31TOxsnek5NLzcSXog9TGJdYYB2x4CJED2iE1zmDZuhlGuR5a",
    "latitude": 18.084525,
    "longitude": 59.288456
  },
  {
    "id": "marker-183",
    "name": "OKQ8 Jokkmokk Klockarvägen",
    "address": "Klockarvägen 17, 96232, Jokkmokk, Zweden",
    "imageUrl": "https://lh3.googleusercontent.com/IT2gbAip6StRHkmGQis6wbbjvXSebPK9GvLab4Ml8bCfG8DCJSDG5oxSepshXBQfCj9zudEUSW7Y85yx0ZXmLtu31TOxsnek5NLzcSXog9TGJdYYB2x4CJED2iE1zmDZuhlGuR5a",
    "latitude": 19.824084,
    "longitude": 66.605759
  },
  {
    "id": "marker-184",
    "name": "OKQ8 Jönköping Solåsvägen",
    "address": "Solåsvägen, 55339, Jönköping, Zweden",
    "imageUrl": "https://lh3.googleusercontent.com/IT2gbAip6StRHkmGQis6wbbjvXSebPK9GvLab4Ml8bCfG8DCJSDG5oxSepshXBQfCj9zudEUSW7Y85yx0ZXmLtu31TOxsnek5NLzcSXog9TGJdYYB2x4CJED2iE1zmDZuhlGuR5a",
    "latitude": 14.155435,
    "longitude": 57.754926
  },
  {
    "id": "marker-185",
    "name": "OKQ8 Junsele Köpmangatan",
    "address": "Köpmangatan 6, 88037, Junsele, Zweden",
    "imageUrl": "https://lh3.googleusercontent.com/IT2gbAip6StRHkmGQis6wbbjvXSebPK9GvLab4Ml8bCfG8DCJSDG5oxSepshXBQfCj9zudEUSW7Y85yx0ZXmLtu31TOxsnek5NLzcSXog9TGJdYYB2x4CJED2iE1zmDZuhlGuR5a",
    "latitude": 16.887467,
    "longitude": 63.695296
  },
  {
    "id": "marker-186",
    "name": "OKQ8 Kalix Parallellgatan",
    "address": "Parallellgatan 15, 95233, Kalix, Zweden",
    "imageUrl": "https://lh3.googleusercontent.com/IT2gbAip6StRHkmGQis6wbbjvXSebPK9GvLab4Ml8bCfG8DCJSDG5oxSepshXBQfCj9zudEUSW7Y85yx0ZXmLtu31TOxsnek5NLzcSXog9TGJdYYB2x4CJED2iE1zmDZuhlGuR5a",
    "latitude": 23.147501,
    "longitude": 65.853857
  },
  {
    "id": "marker-187",
    "name": "OKQ8 Kalix Strandgatan",
    "address": "Strandgatan 2, 95233, Kalix, Zweden",
    "imageUrl": "https://lh3.googleusercontent.com/IT2gbAip6StRHkmGQis6wbbjvXSebPK9GvLab4Ml8bCfG8DCJSDG5oxSepshXBQfCj9zudEUSW7Y85yx0ZXmLtu31TOxsnek5NLzcSXog9TGJdYYB2x4CJED2iE1zmDZuhlGuR5a",
    "latitude": 23.13501,
    "longitude": 65.854195
  },
  {
    "id": "marker-188",
    "name": "OKQ8 Kållered Ekenleden",
    "address": "Ekenleden 1, 42836, Kållered, Zweden",
    "imageUrl": "https://lh3.googleusercontent.com/IT2gbAip6StRHkmGQis6wbbjvXSebPK9GvLab4Ml8bCfG8DCJSDG5oxSepshXBQfCj9zudEUSW7Y85yx0ZXmLtu31TOxsnek5NLzcSXog9TGJdYYB2x4CJED2iE1zmDZuhlGuR5a",
    "latitude": 12.051509,
    "longitude": 57.601961
  },
  {
    "id": "marker-189",
    "name": "OKQ8 Ids Kalmar",
    "address": "Ölandsleden 7, 39239, Kalmar, Zweden",
    "imageUrl": "https://lh3.googleusercontent.com/IT2gbAip6StRHkmGQis6wbbjvXSebPK9GvLab4Ml8bCfG8DCJSDG5oxSepshXBQfCj9zudEUSW7Y85yx0ZXmLtu31TOxsnek5NLzcSXog9TGJdYYB2x4CJED2iE1zmDZuhlGuR5a",
    "latitude": 16.322464,
    "longitude": 56.683584
  },
  {
    "id": "marker-190",
    "name": "OKQ8 Karlskrona Blåport",
    "address": "Blåportsgatan 19, 37142, Karlskrona, Zweden",
    "imageUrl": "https://lh3.googleusercontent.com/IT2gbAip6StRHkmGQis6wbbjvXSebPK9GvLab4Ml8bCfG8DCJSDG5oxSepshXBQfCj9zudEUSW7Y85yx0ZXmLtu31TOxsnek5NLzcSXog9TGJdYYB2x4CJED2iE1zmDZuhlGuR5a",
    "latitude": 15.598708,
    "longitude": 56.173399
  },
  {
    "id": "marker-191",
    "name": "OKQ8 Karlstad Hagalundsvägen 27",
    "address": "Hagalundsvägen 27, 65341, Karlstad, Zweden",
    "imageUrl": "https://lh3.googleusercontent.com/IT2gbAip6StRHkmGQis6wbbjvXSebPK9GvLab4Ml8bCfG8DCJSDG5oxSepshXBQfCj9zudEUSW7Y85yx0ZXmLtu31TOxsnek5NLzcSXog9TGJdYYB2x4CJED2iE1zmDZuhlGuR5a",
    "latitude": 13.478837,
    "longitude": 59.383836
  },
  {
    "id": "marker-192",
    "name": "OKQ8 Karlstad Höjdgatan",
    "address": "Höjdgatan 1, 65468, Karlstad, Zweden",
    "imageUrl": "https://lh3.googleusercontent.com/IT2gbAip6StRHkmGQis6wbbjvXSebPK9GvLab4Ml8bCfG8DCJSDG5oxSepshXBQfCj9zudEUSW7Y85yx0ZXmLtu31TOxsnek5NLzcSXog9TGJdYYB2x4CJED2iE1zmDZuhlGuR5a",
    "latitude": 13.533944,
    "longitude": 59.401654
  },
  {
    "id": "marker-193",
    "name": "OKQ8 Katrineholm Vassmogtan",
    "address": "Vassmogatan 1, 64149, Katrineholm, Zweden",
    "imageUrl": "https://lh3.googleusercontent.com/IT2gbAip6StRHkmGQis6wbbjvXSebPK9GvLab4Ml8bCfG8DCJSDG5oxSepshXBQfCj9zudEUSW7Y85yx0ZXmLtu31TOxsnek5NLzcSXog9TGJdYYB2x4CJED2iE1zmDZuhlGuR5a",
    "latitude": 16.221462,
    "longitude": 58.998311
  },
  {
    "id": "marker-194",
    "name": "OKQ8 Kiruna Österleden",
    "address": "Österleden, 98138, Kiruna, Zweden",
    "imageUrl": "https://lh3.googleusercontent.com/IT2gbAip6StRHkmGQis6wbbjvXSebPK9GvLab4Ml8bCfG8DCJSDG5oxSepshXBQfCj9zudEUSW7Y85yx0ZXmLtu31TOxsnek5NLzcSXog9TGJdYYB2x4CJED2iE1zmDZuhlGuR5a",
    "latitude": 20.252092,
    "longitude": 67.848503
  },
  {
    "id": "marker-195",
    "name": "OKQ8 Kolsva Bergslagsvägen",
    "address": "Bergslagsvägen 96, 73112, Kolsva, Zweden",
    "imageUrl": "https://lh3.googleusercontent.com/IT2gbAip6StRHkmGQis6wbbjvXSebPK9GvLab4Ml8bCfG8DCJSDG5oxSepshXBQfCj9zudEUSW7Y85yx0ZXmLtu31TOxsnek5NLzcSXog9TGJdYYB2x4CJED2iE1zmDZuhlGuR5a",
    "latitude": 15.843656,
    "longitude": 59.59955
  },
  {
    "id": "marker-196",
    "name": "OKQ8 Köping Hultgrensgatan 12",
    "address": "Hultgrensg.12 G:A Q8 Macken, 73150, Köping, Zweden",
    "imageUrl": "https://lh3.googleusercontent.com/IT2gbAip6StRHkmGQis6wbbjvXSebPK9GvLab4Ml8bCfG8DCJSDG5oxSepshXBQfCj9zudEUSW7Y85yx0ZXmLtu31TOxsnek5NLzcSXog9TGJdYYB2x4CJED2iE1zmDZuhlGuR5a",
    "latitude": 15.979624,
    "longitude": 59.51237
  },
  {
    "id": "marker-197",
    "name": "OKQ8 Köping Hultgrensgatan 8",
    "address": "Hultgrensgatan 8, 73150, Köping, Zweden",
    "imageUrl": "https://lh3.googleusercontent.com/IT2gbAip6StRHkmGQis6wbbjvXSebPK9GvLab4Ml8bCfG8DCJSDG5oxSepshXBQfCj9zudEUSW7Y85yx0ZXmLtu31TOxsnek5NLzcSXog9TGJdYYB2x4CJED2iE1zmDZuhlGuR5a",
    "latitude": 15.98688,
    "longitude": 59.510532
  },
  {
    "id": "marker-198",
    "name": "OKQ8 Köping Ringvägen",
    "address": "Ringvägen 68, 73143, Köping, Zweden",
    "imageUrl": "https://lh3.googleusercontent.com/IT2gbAip6StRHkmGQis6wbbjvXSebPK9GvLab4Ml8bCfG8DCJSDG5oxSepshXBQfCj9zudEUSW7Y85yx0ZXmLtu31TOxsnek5NLzcSXog9TGJdYYB2x4CJED2iE1zmDZuhlGuR5a",
    "latitude": 15.977946,
    "longitude": 59.522839
  },
  {
    "id": "marker-199",
    "name": "OKQ8 Kramfors Högstavägen",
    "address": "Högstavägen 1, 87234, Kramfors, Zweden",
    "imageUrl": "https://lh3.googleusercontent.com/IT2gbAip6StRHkmGQis6wbbjvXSebPK9GvLab4Ml8bCfG8DCJSDG5oxSepshXBQfCj9zudEUSW7Y85yx0ZXmLtu31TOxsnek5NLzcSXog9TGJdYYB2x4CJED2iE1zmDZuhlGuR5a",
    "latitude": 17.784218,
    "longitude": 62.920578
  },
  {
    "id": "marker-200",
    "name": "OKQ8 Kristianstad Långebrogatan",
    "address": "Karlsgatan 11, 29159, Kristianstad, Zweden",
    "imageUrl": "https://lh3.googleusercontent.com/IT2gbAip6StRHkmGQis6wbbjvXSebPK9GvLab4Ml8bCfG8DCJSDG5oxSepshXBQfCj9zudEUSW7Y85yx0ZXmLtu31TOxsnek5NLzcSXog9TGJdYYB2x4CJED2iE1zmDZuhlGuR5a",
    "latitude": 14.143425,
    "longitude": 56.022063
  },
  {
    "id": "marker-201",
    "name": "OKQ8 Krokom Föllingevägen",
    "address": "Föllingevägen 2, 83532, Krokom, Zweden",
    "imageUrl": "https://lh3.googleusercontent.com/IT2gbAip6StRHkmGQis6wbbjvXSebPK9GvLab4Ml8bCfG8DCJSDG5oxSepshXBQfCj9zudEUSW7Y85yx0ZXmLtu31TOxsnek5NLzcSXog9TGJdYYB2x4CJED2iE1zmDZuhlGuR5a",
    "latitude": 14.431801,
    "longitude": 63.328542
  },
  {
    "id": "marker-202",
    "name": "OKQ8 Krylbo Folkaregatan",
    "address": "Folkaregatan 50, 77570, Krylbo, Zweden",
    "imageUrl": "https://lh3.googleusercontent.com/IT2gbAip6StRHkmGQis6wbbjvXSebPK9GvLab4Ml8bCfG8DCJSDG5oxSepshXBQfCj9zudEUSW7Y85yx0ZXmLtu31TOxsnek5NLzcSXog9TGJdYYB2x4CJED2iE1zmDZuhlGuR5a",
    "latitude": 16.241743,
    "longitude": 60.119541
  },
  {
    "id": "marker-203",
    "name": "OKQ8 Kumla Täbyvägen",
    "address": "Täbyvägen 2, 69233, Kumla, Zweden",
    "imageUrl": "https://lh3.googleusercontent.com/IT2gbAip6StRHkmGQis6wbbjvXSebPK9GvLab4Ml8bCfG8DCJSDG5oxSepshXBQfCj9zudEUSW7Y85yx0ZXmLtu31TOxsnek5NLzcSXog9TGJdYYB2x4CJED2iE1zmDZuhlGuR5a",
    "latitude": 15.136782,
    "longitude": 59.143706
  },
  {
    "id": "marker-204",
    "name": "OKQ8 Kungsängen Skolvägen",
    "address": "Skolvägen 41, 19634, Kungsängen, Zweden",
    "imageUrl": "https://lh3.googleusercontent.com/IT2gbAip6StRHkmGQis6wbbjvXSebPK9GvLab4Ml8bCfG8DCJSDG5oxSepshXBQfCj9zudEUSW7Y85yx0ZXmLtu31TOxsnek5NLzcSXog9TGJdYYB2x4CJED2iE1zmDZuhlGuR5a",
    "latitude": 17.729957,
    "longitude": 59.479605
  },
  {
    "id": "marker-205",
    "name": "OKQ8 Kungsbacka Energigatan",
    "address": "Energigatan 2, 43437, Kungsbacka, Zweden",
    "imageUrl": "https://lh3.googleusercontent.com/IT2gbAip6StRHkmGQis6wbbjvXSebPK9GvLab4Ml8bCfG8DCJSDG5oxSepshXBQfCj9zudEUSW7Y85yx0ZXmLtu31TOxsnek5NLzcSXog9TGJdYYB2x4CJED2iE1zmDZuhlGuR5a",
    "latitude": 12.064311,
    "longitude": 57.506304
  },
  {
    "id": "marker-206",
    "name": "OKQ8 Kungsör Kungsgatan",
    "address": "Kungsgatan 102, 73633, Kungsör, Zweden",
    "imageUrl": "https://lh3.googleusercontent.com/IT2gbAip6StRHkmGQis6wbbjvXSebPK9GvLab4Ml8bCfG8DCJSDG5oxSepshXBQfCj9zudEUSW7Y85yx0ZXmLtu31TOxsnek5NLzcSXog9TGJdYYB2x4CJED2iE1zmDZuhlGuR5a",
    "latitude": 16.088134,
    "longitude": 59.428082
  },
  {
    "id": "marker-207",
    "name": "OKQ8 Kvissleby Affärsgatan",
    "address": "Affärsgatan 17, 86231, Kvissleby, Zweden",
    "imageUrl": "https://lh3.googleusercontent.com/IT2gbAip6StRHkmGQis6wbbjvXSebPK9GvLab4Ml8bCfG8DCJSDG5oxSepshXBQfCj9zudEUSW7Y85yx0ZXmLtu31TOxsnek5NLzcSXog9TGJdYYB2x4CJED2iE1zmDZuhlGuR5a",
    "latitude": 17.377203,
    "longitude": 62.3017
  },
  {
    "id": "marker-208",
    "name": "OKQ8 Landvetter Flygplatsvägen 10",
    "address": "Flygplatsvägen 10, 43870, Landvetter, Zweden",
    "imageUrl": "https://lh3.googleusercontent.com/IT2gbAip6StRHkmGQis6wbbjvXSebPK9GvLab4Ml8bCfG8DCJSDG5oxSepshXBQfCj9zudEUSW7Y85yx0ZXmLtu31TOxsnek5NLzcSXog9TGJdYYB2x4CJED2iE1zmDZuhlGuR5a",
    "latitude": 12.311036,
    "longitude": 57.679597
  },
  {
    "id": "marker-209",
    "name": "OKQ8 Laxå Riksvägen-Revirg",
    "address": "Riksvägen-Revirgatan, 69530, Laxå, Zweden",
    "imageUrl": "https://lh3.googleusercontent.com/IT2gbAip6StRHkmGQis6wbbjvXSebPK9GvLab4Ml8bCfG8DCJSDG5oxSepshXBQfCj9zudEUSW7Y85yx0ZXmLtu31TOxsnek5NLzcSXog9TGJdYYB2x4CJED2iE1zmDZuhlGuR5a",
    "latitude": 14.618827,
    "longitude": 58.985335
  },
  {
    "id": "marker-210",
    "name": "OKQ8 Leksand Hagagatan",
    "address": "Hagagatan, 79330, Leksand, Zweden",
    "imageUrl": "https://lh3.googleusercontent.com/IT2gbAip6StRHkmGQis6wbbjvXSebPK9GvLab4Ml8bCfG8DCJSDG5oxSepshXBQfCj9zudEUSW7Y85yx0ZXmLtu31TOxsnek5NLzcSXog9TGJdYYB2x4CJED2iE1zmDZuhlGuR5a",
    "latitude": 15.003083,
    "longitude": 60.732273
  },
  {
    "id": "marker-211",
    "name": "OKQ8 Lidingö Drottningvägen",
    "address": "Drottningvägen 2A, 18132, Lidingö, Zweden",
    "imageUrl": "https://lh3.googleusercontent.com/IT2gbAip6StRHkmGQis6wbbjvXSebPK9GvLab4Ml8bCfG8DCJSDG5oxSepshXBQfCj9zudEUSW7Y85yx0ZXmLtu31TOxsnek5NLzcSXog9TGJdYYB2x4CJED2iE1zmDZuhlGuR5a",
    "latitude": 18.133082,
    "longitude": 59.362673
  },
  {
    "id": "marker-212",
    "name": "OKQ8 Lidingö Islinge hamnväg",
    "address": "Islinge Hamnväg 19, 18131, Lidingö, Zweden",
    "imageUrl": "https://lh3.googleusercontent.com/IT2gbAip6StRHkmGQis6wbbjvXSebPK9GvLab4Ml8bCfG8DCJSDG5oxSepshXBQfCj9zudEUSW7Y85yx0ZXmLtu31TOxsnek5NLzcSXog9TGJdYYB2x4CJED2iE1zmDZuhlGuR5a",
    "latitude": 18.120023,
    "longitude": 59.369136
  },
  {
    "id": "marker-213",
    "name": "OKQ8 Lidköping",
    "address": "Ågårdsrondellen/Tallskogsv, 53151, Lidköping, Zweden",
    "imageUrl": "https://lh3.googleusercontent.com/IT2gbAip6StRHkmGQis6wbbjvXSebPK9GvLab4Ml8bCfG8DCJSDG5oxSepshXBQfCj9zudEUSW7Y85yx0ZXmLtu31TOxsnek5NLzcSXog9TGJdYYB2x4CJED2iE1zmDZuhlGuR5a",
    "latitude": 13.1426941,
    "longitude": 58.4926259
  },
  {
    "id": "marker-214",
    "name": "OKQ8 Linköping",
    "address": "Nygårdsinfarten 1, 58643, Linköping, Zweden",
    "imageUrl": "https://lh3.googleusercontent.com/IT2gbAip6StRHkmGQis6wbbjvXSebPK9GvLab4Ml8bCfG8DCJSDG5oxSepshXBQfCj9zudEUSW7Y85yx0ZXmLtu31TOxsnek5NLzcSXog9TGJdYYB2x4CJED2iE1zmDZuhlGuR5a",
    "latitude": 15.58285,
    "longitude": 58.432425
  },
  {
    "id": "marker-215",
    "name": "OKQ8 Linköping Rydsvägen",
    "address": "Rydsvägen 1 A, 58431, Linköping, Zweden",
    "imageUrl": "https://lh3.googleusercontent.com/IT2gbAip6StRHkmGQis6wbbjvXSebPK9GvLab4Ml8bCfG8DCJSDG5oxSepshXBQfCj9zudEUSW7Y85yx0ZXmLtu31TOxsnek5NLzcSXog9TGJdYYB2x4CJED2iE1zmDZuhlGuR5a",
    "latitude": 15.561309,
    "longitude": 58.412179
  },
  {
    "id": "marker-216",
    "name": "OKQ8 Ljungsbro Cloettavägen",
    "address": "Cloettavägen 20, 59071, Ljungsbro, Zweden",
    "imageUrl": "https://lh3.googleusercontent.com/IT2gbAip6StRHkmGQis6wbbjvXSebPK9GvLab4Ml8bCfG8DCJSDG5oxSepshXBQfCj9zudEUSW7Y85yx0ZXmLtu31TOxsnek5NLzcSXog9TGJdYYB2x4CJED2iE1zmDZuhlGuR5a",
    "latitude": 15.501149,
    "longitude": 58.508333
  },
  {
    "id": "marker-217",
    "name": "OKQ8 Ljusdal N.Järnvägsgatan",
    "address": "Norra Järnvägsgatan 60, 82735, Ljusdal, Zweden",
    "imageUrl": "https://lh3.googleusercontent.com/IT2gbAip6StRHkmGQis6wbbjvXSebPK9GvLab4Ml8bCfG8DCJSDG5oxSepshXBQfCj9zudEUSW7Y85yx0ZXmLtu31TOxsnek5NLzcSXog9TGJdYYB2x4CJED2iE1zmDZuhlGuR5a",
    "latitude": 16.109993,
    "longitude": 61.823271
  },
  {
    "id": "marker-218",
    "name": "OKQ8 Löddeköpinge",
    "address": "Transportvägen 22, 24642, Löddeköpinge, Zweden",
    "imageUrl": "https://lh3.googleusercontent.com/IT2gbAip6StRHkmGQis6wbbjvXSebPK9GvLab4Ml8bCfG8DCJSDG5oxSepshXBQfCj9zudEUSW7Y85yx0ZXmLtu31TOxsnek5NLzcSXog9TGJdYYB2x4CJED2iE1zmDZuhlGuR5a",
    "latitude": 12.998623,
    "longitude": 55.773873
  },
  {
    "id": "marker-219",
    "name": "OKQ8 Ludvika Snöåvägen",
    "address": "Snöåvägen 18, 77142, Ludvika, Zweden",
    "imageUrl": "https://lh3.googleusercontent.com/IT2gbAip6StRHkmGQis6wbbjvXSebPK9GvLab4Ml8bCfG8DCJSDG5oxSepshXBQfCj9zudEUSW7Y85yx0ZXmLtu31TOxsnek5NLzcSXog9TGJdYYB2x4CJED2iE1zmDZuhlGuR5a",
    "latitude": 15.177515,
    "longitude": 60.130705
  },
  {
    "id": "marker-220",
    "name": "OKQ8 Luleå Hertsövägen",
    "address": "Hertsövägen 11, 97432, Luleå, Zweden",
    "imageUrl": "https://lh3.googleusercontent.com/IT2gbAip6StRHkmGQis6wbbjvXSebPK9GvLab4Ml8bCfG8DCJSDG5oxSepshXBQfCj9zudEUSW7Y85yx0ZXmLtu31TOxsnek5NLzcSXog9TGJdYYB2x4CJED2iE1zmDZuhlGuR5a",
    "latitude": 22.18897,
    "longitude": 65.580085
  },
  {
    "id": "marker-221",
    "name": "OKQ8 Luleå Notviken",
    "address": "Banvägen 27, 97346, Luleå, Zweden",
    "imageUrl": "https://lh3.googleusercontent.com/IT2gbAip6StRHkmGQis6wbbjvXSebPK9GvLab4Ml8bCfG8DCJSDG5oxSepshXBQfCj9zudEUSW7Y85yx0ZXmLtu31TOxsnek5NLzcSXog9TGJdYYB2x4CJED2iE1zmDZuhlGuR5a",
    "latitude": 22.103753,
    "longitude": 65.613902
  },
  {
    "id": "marker-222",
    "name": "OKQ8 Lund Kung Oscars Väg",
    "address": "Kung Oscars Väg 14, 22237, Lund, Zweden",
    "imageUrl": "https://lh3.googleusercontent.com/IT2gbAip6StRHkmGQis6wbbjvXSebPK9GvLab4Ml8bCfG8DCJSDG5oxSepshXBQfCj9zudEUSW7Y85yx0ZXmLtu31TOxsnek5NLzcSXog9TGJdYYB2x4CJED2iE1zmDZuhlGuR5a",
    "latitude": 13.180982,
    "longitude": 55.711743
  },
  {
    "id": "marker-223",
    "name": "OKQ8 Ids Malmö Hamn",
    "address": "Ljusterögatan 8, 21124, Malmö, Zweden",
    "imageUrl": "https://lh3.googleusercontent.com/IT2gbAip6StRHkmGQis6wbbjvXSebPK9GvLab4Ml8bCfG8DCJSDG5oxSepshXBQfCj9zudEUSW7Y85yx0ZXmLtu31TOxsnek5NLzcSXog9TGJdYYB2x4CJED2iE1zmDZuhlGuR5a",
    "latitude": 13.030123,
    "longitude": 55.625241
  },
  {
    "id": "marker-224",
    "name": "OKQ8 Malmö Vattenverksvägen",
    "address": "Vattenverksvägen 60, 21243, Malmö, Zweden",
    "imageUrl": "https://lh3.googleusercontent.com/IT2gbAip6StRHkmGQis6wbbjvXSebPK9GvLab4Ml8bCfG8DCJSDG5oxSepshXBQfCj9zudEUSW7Y85yx0ZXmLtu31TOxsnek5NLzcSXog9TGJdYYB2x4CJED2iE1zmDZuhlGuR5a",
    "latitude": 13.061768,
    "longitude": 55.610204
  },
  {
    "id": "marker-225",
    "name": "OKQ8 Malmö Västkustv",
    "address": "Västkustvägen 19-21, 21124, Malmö, Zweden",
    "imageUrl": "https://lh3.googleusercontent.com/IT2gbAip6StRHkmGQis6wbbjvXSebPK9GvLab4Ml8bCfG8DCJSDG5oxSepshXBQfCj9zudEUSW7Y85yx0ZXmLtu31TOxsnek5NLzcSXog9TGJdYYB2x4CJED2iE1zmDZuhlGuR5a",
    "latitude": 13.038936,
    "longitude": 55.625927
  },
  {
    "id": "marker-226",
    "name": "OKQ8 Malung Backselsvägen",
    "address": "Pell Annas Väg 3, 78234, Malung, Zweden",
    "imageUrl": "https://lh3.googleusercontent.com/IT2gbAip6StRHkmGQis6wbbjvXSebPK9GvLab4Ml8bCfG8DCJSDG5oxSepshXBQfCj9zudEUSW7Y85yx0ZXmLtu31TOxsnek5NLzcSXog9TGJdYYB2x4CJED2iE1zmDZuhlGuR5a",
    "latitude": 13.731985,
    "longitude": 60.679334
  },
  {
    "id": "marker-227",
    "name": "OKQ8 Mjölby Västra Trafikplats",
    "address": "Sparregatan 11, 59535, Mjölby, Zweden",
    "imageUrl": "https://lh3.googleusercontent.com/IT2gbAip6StRHkmGQis6wbbjvXSebPK9GvLab4Ml8bCfG8DCJSDG5oxSepshXBQfCj9zudEUSW7Y85yx0ZXmLtu31TOxsnek5NLzcSXog9TGJdYYB2x4CJED2iE1zmDZuhlGuR5a",
    "latitude": 15.091286,
    "longitude": 58.32325
  },
  {
    "id": "marker-228",
    "name": "OKQ8 Mjölby Smålandsvägen",
    "address": "Smålandsvägen 71, 59540, Mjölby, Zweden",
    "imageUrl": "https://lh3.googleusercontent.com/IT2gbAip6StRHkmGQis6wbbjvXSebPK9GvLab4Ml8bCfG8DCJSDG5oxSepshXBQfCj9zudEUSW7Y85yx0ZXmLtu31TOxsnek5NLzcSXog9TGJdYYB2x4CJED2iE1zmDZuhlGuR5a",
    "latitude": 15.117501,
    "longitude": 58.318779
  },
  {
    "id": "marker-229",
    "name": "OKQ8 Mölndal Göteborgsv",
    "address": "Göteborgsv-Fredåsgatan, 43167, Mölndal, Zweden",
    "imageUrl": "https://lh3.googleusercontent.com/IT2gbAip6StRHkmGQis6wbbjvXSebPK9GvLab4Ml8bCfG8DCJSDG5oxSepshXBQfCj9zudEUSW7Y85yx0ZXmLtu31TOxsnek5NLzcSXog9TGJdYYB2x4CJED2iE1zmDZuhlGuR5a",
    "latitude": 12.000713,
    "longitude": 57.674891
  },
  {
    "id": "marker-230",
    "name": "OKQ8 Mönsterås Storgatan",
    "address": "Storgatan 90, 38337, Mönsterås, Zweden",
    "imageUrl": "https://lh3.googleusercontent.com/IT2gbAip6StRHkmGQis6wbbjvXSebPK9GvLab4Ml8bCfG8DCJSDG5oxSepshXBQfCj9zudEUSW7Y85yx0ZXmLtu31TOxsnek5NLzcSXog9TGJdYYB2x4CJED2iE1zmDZuhlGuR5a",
    "latitude": 16.440086,
    "longitude": 57.050375
  },
  {
    "id": "marker-231",
    "name": "OKQ8 Mora Yvradsvägen",
    "address": "Yvradsvägen 2, 79234, Mora, Zweden",
    "imageUrl": "https://lh3.googleusercontent.com/IT2gbAip6StRHkmGQis6wbbjvXSebPK9GvLab4Ml8bCfG8DCJSDG5oxSepshXBQfCj9zudEUSW7Y85yx0ZXmLtu31TOxsnek5NLzcSXog9TGJdYYB2x4CJED2iE1zmDZuhlGuR5a",
    "latitude": 14.539497,
    "longitude": 61.000969
  },
  {
    "id": "marker-232",
    "name": "OKQ8 Nacka Skvaltans Väg",
    "address": "Skvaltans Väg 17, 13139, Nacka, Zweden",
    "imageUrl": "https://lh3.googleusercontent.com/IT2gbAip6StRHkmGQis6wbbjvXSebPK9GvLab4Ml8bCfG8DCJSDG5oxSepshXBQfCj9zudEUSW7Y85yx0ZXmLtu31TOxsnek5NLzcSXog9TGJdYYB2x4CJED2iE1zmDZuhlGuR5a",
    "latitude": 18.182104,
    "longitude": 59.313802
  },
  {
    "id": "marker-233",
    "name": "OKQ8 Nässjö Rådhusgatan",
    "address": "Rådhusgatan 68, 57133, Nässjö, Zweden",
    "imageUrl": "https://lh3.googleusercontent.com/IT2gbAip6StRHkmGQis6wbbjvXSebPK9GvLab4Ml8bCfG8DCJSDG5oxSepshXBQfCj9zudEUSW7Y85yx0ZXmLtu31TOxsnek5NLzcSXog9TGJdYYB2x4CJED2iE1zmDZuhlGuR5a",
    "latitude": 14.691636,
    "longitude": 57.658449
  },
  {
    "id": "marker-234",
    "name": "OKQ8 Nödinge Nödingevägen",
    "address": "Ale Torg 20, 44931, Nödinge, Zweden",
    "imageUrl": "https://lh3.googleusercontent.com/IT2gbAip6StRHkmGQis6wbbjvXSebPK9GvLab4Ml8bCfG8DCJSDG5oxSepshXBQfCj9zudEUSW7Y85yx0ZXmLtu31TOxsnek5NLzcSXog9TGJdYYB2x4CJED2iE1zmDZuhlGuR5a",
    "latitude": 12.0459145,
    "longitude": 57.8945065
  },
  {
    "id": "marker-235",
    "name": "OKQ8 Nordmaling Rödviksvägen",
    "address": "Rödviksvägen, 91491, Nordmaling, Zweden",
    "imageUrl": "https://lh3.googleusercontent.com/IT2gbAip6StRHkmGQis6wbbjvXSebPK9GvLab4Ml8bCfG8DCJSDG5oxSepshXBQfCj9zudEUSW7Y85yx0ZXmLtu31TOxsnek5NLzcSXog9TGJdYYB2x4CJED2iE1zmDZuhlGuR5a",
    "latitude": 19.437504,
    "longitude": 63.597393
  },
  {
    "id": "marker-236",
    "name": "OKQ8 Norrköping Ingelsta",
    "address": "Malmgatan 41, 60223, Norrköping, Zweden",
    "imageUrl": "https://lh3.googleusercontent.com/IT2gbAip6StRHkmGQis6wbbjvXSebPK9GvLab4Ml8bCfG8DCJSDG5oxSepshXBQfCj9zudEUSW7Y85yx0ZXmLtu31TOxsnek5NLzcSXog9TGJdYYB2x4CJED2iE1zmDZuhlGuR5a",
    "latitude": 16.175516,
    "longitude": 58.616158
  },
  {
    "id": "marker-237",
    "name": "OKQ8 Norrköping Skarphagsleden",
    "address": "Skarphagsleden, 60363, Norrköping, Zweden",
    "imageUrl": "https://lh3.googleusercontent.com/IT2gbAip6StRHkmGQis6wbbjvXSebPK9GvLab4Ml8bCfG8DCJSDG5oxSepshXBQfCj9zudEUSW7Y85yx0ZXmLtu31TOxsnek5NLzcSXog9TGJdYYB2x4CJED2iE1zmDZuhlGuR5a",
    "latitude": 16.1683572,
    "longitude": 58.580318
  },
  {
    "id": "marker-238",
    "name": "OKQ8 Norrköping Skärblackav",
    "address": "Trafikplats Klinga, 60597, Norrköping, Zweden",
    "imageUrl": "https://lh3.googleusercontent.com/IT2gbAip6StRHkmGQis6wbbjvXSebPK9GvLab4Ml8bCfG8DCJSDG5oxSepshXBQfCj9zudEUSW7Y85yx0ZXmLtu31TOxsnek5NLzcSXog9TGJdYYB2x4CJED2iE1zmDZuhlGuR5a",
    "latitude": 16.092559,
    "longitude": 58.57116
  },
  {
    "id": "marker-239",
    "name": "OKQ8 Norrköping Stockholmsv 72-74",
    "address": "Stockholmsvägen 72-74, 60217, Norrköping, Zweden",
    "imageUrl": "https://lh3.googleusercontent.com/IT2gbAip6StRHkmGQis6wbbjvXSebPK9GvLab4Ml8bCfG8DCJSDG5oxSepshXBQfCj9zudEUSW7Y85yx0ZXmLtu31TOxsnek5NLzcSXog9TGJdYYB2x4CJED2iE1zmDZuhlGuR5a",
    "latitude": 16.169112,
    "longitude": 58.59737
  },
  {
    "id": "marker-240",
    "name": "OKQ8 Norrtälje Stockholmsv 51",
    "address": "Stockholmsvägen 51, 76143, Norrtälje, Zweden",
    "imageUrl": "https://lh3.googleusercontent.com/IT2gbAip6StRHkmGQis6wbbjvXSebPK9GvLab4Ml8bCfG8DCJSDG5oxSepshXBQfCj9zudEUSW7Y85yx0ZXmLtu31TOxsnek5NLzcSXog9TGJdYYB2x4CJED2iE1zmDZuhlGuR5a",
    "latitude": 18.688393,
    "longitude": 59.748044
  },
  {
    "id": "marker-241",
    "name": "OKQ8 Norsborg Tegelbruksvägen",
    "address": "Tegelbruksvägen, 14553, Norsborg, Zweden",
    "imageUrl": "https://lh3.googleusercontent.com/IT2gbAip6StRHkmGQis6wbbjvXSebPK9GvLab4Ml8bCfG8DCJSDG5oxSepshXBQfCj9zudEUSW7Y85yx0ZXmLtu31TOxsnek5NLzcSXog9TGJdYYB2x4CJED2iE1zmDZuhlGuR5a",
    "latitude": 17.864016,
    "longitude": 59.254962
  },
  {
    "id": "marker-242",
    "name": "OKQ8 Nyköping Gustavsbergsstigen",
    "address": "Gustavsbergsstigen 2, 61165, Nyköping, Zweden",
    "imageUrl": "https://lh3.googleusercontent.com/IT2gbAip6StRHkmGQis6wbbjvXSebPK9GvLab4Ml8bCfG8DCJSDG5oxSepshXBQfCj9zudEUSW7Y85yx0ZXmLtu31TOxsnek5NLzcSXog9TGJdYYB2x4CJED2iE1zmDZuhlGuR5a",
    "latitude": 17.02554,
    "longitude": 58.768485
  },
  {
    "id": "marker-243",
    "name": "OKQ8 Nykvarn",
    "address": "Gamla Strängnäsvägen 509, 15591, Nykvarn, Zweden",
    "imageUrl": "https://lh3.googleusercontent.com/IT2gbAip6StRHkmGQis6wbbjvXSebPK9GvLab4Ml8bCfG8DCJSDG5oxSepshXBQfCj9zudEUSW7Y85yx0ZXmLtu31TOxsnek5NLzcSXog9TGJdYYB2x4CJED2iE1zmDZuhlGuR5a",
    "latitude": 17.421771,
    "longitude": 59.202521
  },
  {
    "id": "marker-244",
    "name": "OKQ8 Nynäshamn Aut",
    "address": "Väg73/Mysingevägen, 14941, Nynäshamn, Zweden",
    "imageUrl": "https://lh3.googleusercontent.com/IT2gbAip6StRHkmGQis6wbbjvXSebPK9GvLab4Ml8bCfG8DCJSDG5oxSepshXBQfCj9zudEUSW7Y85yx0ZXmLtu31TOxsnek5NLzcSXog9TGJdYYB2x4CJED2iE1zmDZuhlGuR5a",
    "latitude": 17.959301,
    "longitude": 58.922027
  },
  {
    "id": "marker-245",
    "name": "OKQ8 Ödeshög Liljekonvaljvägen",
    "address": "Trafikplats Ödeshög E4, 59931, Ödeshög, Zweden",
    "imageUrl": "https://lh3.googleusercontent.com/IT2gbAip6StRHkmGQis6wbbjvXSebPK9GvLab4Ml8bCfG8DCJSDG5oxSepshXBQfCj9zudEUSW7Y85yx0ZXmLtu31TOxsnek5NLzcSXog9TGJdYYB2x4CJED2iE1zmDZuhlGuR5a",
    "latitude": 14.655406,
    "longitude": 58.231543
  },
  {
    "id": "marker-246",
    "name": "OKQ8 Örebro Västhagagatan",
    "address": "Västhagagatan 7, 70346, Örebro, Zweden",
    "imageUrl": "https://lh3.googleusercontent.com/IT2gbAip6StRHkmGQis6wbbjvXSebPK9GvLab4Ml8bCfG8DCJSDG5oxSepshXBQfCj9zudEUSW7Y85yx0ZXmLtu31TOxsnek5NLzcSXog9TGJdYYB2x4CJED2iE1zmDZuhlGuR5a",
    "latitude": 15.17499,
    "longitude": 59.271136
  },
  {
    "id": "marker-247",
    "name": "OKQ8 Örebro Södermalmsplan",
    "address": "Södermalmsplan 5, 70225, Örebro, Zweden",
    "imageUrl": "https://lh3.googleusercontent.com/IT2gbAip6StRHkmGQis6wbbjvXSebPK9GvLab4Ml8bCfG8DCJSDG5oxSepshXBQfCj9zudEUSW7Y85yx0ZXmLtu31TOxsnek5NLzcSXog9TGJdYYB2x4CJED2iE1zmDZuhlGuR5a",
    "latitude": 15.198988,
    "longitude": 59.265004
  },
  {
    "id": "marker-248",
    "name": "OKQ8 Örebro Hagmarksgatan",
    "address": "Hagmarksgatan 45, 70216, Örebro, Zweden",
    "imageUrl": "https://lh3.googleusercontent.com/IT2gbAip6StRHkmGQis6wbbjvXSebPK9GvLab4Ml8bCfG8DCJSDG5oxSepshXBQfCj9zudEUSW7Y85yx0ZXmLtu31TOxsnek5NLzcSXog9TGJdYYB2x4CJED2iE1zmDZuhlGuR5a",
    "latitude": 15.238751,
    "longitude": 59.265353
  },
  {
    "id": "marker-249",
    "name": "OKQ8 Örnsköldsvik Härnösandsv 4",
    "address": "Härnösandsvägen 4/E4, 89131, Örnsköldsvik, Zweden",
    "imageUrl": "https://lh3.googleusercontent.com/IT2gbAip6StRHkmGQis6wbbjvXSebPK9GvLab4Ml8bCfG8DCJSDG5oxSepshXBQfCj9zudEUSW7Y85yx0ZXmLtu31TOxsnek5NLzcSXog9TGJdYYB2x4CJED2iE1zmDZuhlGuR5a",
    "latitude": 18.699845,
    "longitude": 63.287389
  },
  {
    "id": "marker-250",
    "name": "OKQ8 Östersund Körfältsvägen",
    "address": "Körfältsvägen 2, 83138, Östersund, Zweden",
    "imageUrl": "https://lh3.googleusercontent.com/IT2gbAip6StRHkmGQis6wbbjvXSebPK9GvLab4Ml8bCfG8DCJSDG5oxSepshXBQfCj9zudEUSW7Y85yx0ZXmLtu31TOxsnek5NLzcSXog9TGJdYYB2x4CJED2iE1zmDZuhlGuR5a",
    "latitude": 14.67065,
    "longitude": 63.176718
  },
  {
    "id": "marker-251",
    "name": "OKQ8 Östersund S.Gröngatan",
    "address": "Södra Gröngatan 40, 83135, Östersund, Zweden",
    "imageUrl": "https://lh3.googleusercontent.com/IT2gbAip6StRHkmGQis6wbbjvXSebPK9GvLab4Ml8bCfG8DCJSDG5oxSepshXBQfCj9zudEUSW7Y85yx0ZXmLtu31TOxsnek5NLzcSXog9TGJdYYB2x4CJED2iE1zmDZuhlGuR5a",
    "latitude": 14.64339,
    "longitude": 63.173364
  },
  {
    "id": "marker-252",
    "name": "OKQ8 Malmö Lockarp",
    "address": "Lockarpsvägen 4, 23841, Oxie, Zweden",
    "imageUrl": "https://lh3.googleusercontent.com/IT2gbAip6StRHkmGQis6wbbjvXSebPK9GvLab4Ml8bCfG8DCJSDG5oxSepshXBQfCj9zudEUSW7Y85yx0ZXmLtu31TOxsnek5NLzcSXog9TGJdYYB2x4CJED2iE1zmDZuhlGuR5a",
    "latitude": 13.033548,
    "longitude": 55.549175
  },
  {
    "id": "marker-253",
    "name": "OKQ8 Pajala Genvägen",
    "address": "Genvägen 55, 98432, Pajala, Zweden",
    "imageUrl": "https://lh3.googleusercontent.com/IT2gbAip6StRHkmGQis6wbbjvXSebPK9GvLab4Ml8bCfG8DCJSDG5oxSepshXBQfCj9zudEUSW7Y85yx0ZXmLtu31TOxsnek5NLzcSXog9TGJdYYB2x4CJED2iE1zmDZuhlGuR5a",
    "latitude": 23.36753,
    "longitude": 67.208776
  },
  {
    "id": "marker-254",
    "name": "OKQ8 Pålsboda N:A Storgatan",
    "address": "Norra Storgatan 21, 69730, Pålsboda, Zweden",
    "imageUrl": "https://lh3.googleusercontent.com/IT2gbAip6StRHkmGQis6wbbjvXSebPK9GvLab4Ml8bCfG8DCJSDG5oxSepshXBQfCj9zudEUSW7Y85yx0ZXmLtu31TOxsnek5NLzcSXog9TGJdYYB2x4CJED2iE1zmDZuhlGuR5a",
    "latitude": 15.336891,
    "longitude": 59.067532
  }
]